[
  {
    "name": "新北市板橋區板橋國民小學附設幼兒園",
    "address": "[220]新北市板橋區黃石里10鄰文化路一段23號",
    "location": { "lat": 25.011502, "lng": 121.458411 }
  },
  {
    "name": "新北市立板橋國民中學附設幼兒園",
    "address": "[220]新北市板橋區中正里12鄰中正路437號",
    "location": { "lat": 25.034083, "lng": 121.44344 }
  },
  {
    "name": "新北市立板橋幼兒園",
    "address": "[220]新北市板橋區中正里5鄰中正路375巷48號",
    "location": { "lat": 25.02027, "lng": 121.4536 }
  },
  {
    "name": "新北市板橋區國光國民小學附設幼兒園",
    "address": "[220]新北市板橋區香社里1鄰中正路325巷30號",
    "location": { "lat": 25.0194727, "lng": 121.4530351 }
  },
  {
    "name": "新北市立板橋幼兒園公館分班",
    "address": "[220]新北市板橋區漢生里8鄰光正街57號2樓",
    "location": { "lat": 25.0176964, "lng": 121.4616212 }
  },
  {
    "name": "新北市板橋區文德國民小學附設幼兒園",
    "address": "[220]新北市板橋區幸福里11鄰英士路179號",
    "location": { "lat": 25.0233131, "lng": 121.4588092 }
  },
  {
    "name": "新北市板橋區新埔國民小學附設幼兒園",
    "address": "[220]新北市板橋區新翠里4鄰陽明街206號",
    "location": { "lat": 25.0258792, "lng": 121.462417 }
  },
  {
    "name": "新北市板橋區江翠國民小學附設幼兒園",
    "address": "[220]新北市板橋區柏翠里2鄰文化路二段413號",
    "location": { "lat": 25.032323, "lng": 121.4741372 }
  },
  {
    "name": "新北市板橋區莒光國民小學附設幼兒園",
    "address": "[220]新北市板橋區華翠里12鄰莒光路163號",
    "location": { "lat": 25.0241359, "lng": 121.4739621 }
  },
  {
    "name": "新北市立板橋幼兒園新民分班",
    "address": "[220]新北市板橋區福翠里3鄰懷德街235巷2號",
    "location": { "lat": 25.0285083, "lng": 121.4811694 }
  },
  {
    "name": "新北市板橋區埔墘國民小學附設幼兒園",
    "address": "[220]新北市板橋區光仁里14鄰永豐街42之8號",
    "location": { "lat": 25.0181471, "lng": 121.4741019 }
  },
  {
    "name": "新北市板橋區海山國民小學附設幼兒園",
    "address": "[220]新北市板橋區深丘里12鄰漢生東路280號",
    "location": { "lat": 25.0094961, "lng": 121.4708924 }
  },
  {
    "name": "新北市板橋區實踐國民小學附設幼兒園",
    "address": "[220]新北市板橋區國泰里5鄰實踐路93巷51號",
    "location": { "lat": 25.0049856, "lng": 121.4663868 }
  },
  {
    "name": "新北市板橋區後埔國民小學附設幼兒園",
    "address": "[220]新北市板橋區福星里17鄰重慶路157號",
    "location": { "lat": 25.0031578, "lng": 121.4633736 }
  },
  {
    "name": "新北市立忠孝國民中學附設幼兒園",
    "address": "[220]新北市板橋區福星里3鄰成都街30號",
    "location": { "lat": 25.0048191, "lng": 121.4615907 }
  },
  {
    "name": "新北市立重慶國民中學附設幼兒園",
    "address": "[220]新北市板橋區重慶里31鄰國慶路221號",
    "location": { "lat": 24.998117, "lng": 121.4629065 }
  },
  {
    "name": "新北市立板橋幼兒園和平分班",
    "address": "[220]新北市板橋區廣福里4鄰重慶路355號",
    "location": { "lat": 24.9977051, "lng": 121.4642959 }
  },
  {
    "name": "新北市板橋區信義國民小學附設幼兒園",
    "address": "[220]新北市板橋區華德里23鄰四川路二段245巷60號",
    "location": { "lat": 24.9917273, "lng": 121.452634 }
  },
  {
    "name": "新北市板橋區中山國民小學附設幼兒園",
    "address": "[220]新北市板橋區中山里21鄰大觀路二段59巷31號",
    "location": { "lat": 25.0023051, "lng": 121.4477275 }
  },
  {
    "name": "新北市立溪崑國民中學附設幼兒園",
    "address": "[220]新北市板橋區崑崙里23鄰大觀路三段50巷30號",
    "location": { "lat": 24.996868, "lng": 121.431494 }
  },
  {
    "name": "新北市板橋區大觀國民小學附設幼兒園",
    "address": "[220]新北市板橋區浮洲里25鄰大觀路一段30號",
    "location": { "lat": 25.0085816, "lng": 121.4494217 }
  },
  {
    "name": "新北市板橋區沙崙國民小學附設幼兒園",
    "address": "[220]新北市板橋區溪北里18鄰篤行路二段132號",
    "location": { "lat": 24.9897464, "lng": 121.4305412 }
  },
  {
    "name": "新北市立江翠國民中學附設幼兒園",
    "address": "[220]新北市板橋區文化里8鄰松江街63號",
    "location": { "lat": 25.0288652, "lng": 121.4684587 }
  },
  {
    "name": "新北市立新埔國民中學附設幼兒園",
    "address": "[220]新北市板橋區新海里1鄰新海路181號",
    "location": { "lat": 25.0247941, "lng": 121.4597502 }
  },
  {
    "name": "新北市板橋區文聖國民小學附設幼兒園",
    "address": "[220]新北市板橋區松柏里5鄰文聖街86號",
    "location": { "lat": 25.0291419, "lng": 121.4774654 }
  },
  {
    "name": "新北市板橋區重慶國民小學附設幼兒園",
    "address": "[220]新北市板橋區五權里1鄰廣和街31號",
    "location": { "lat": 24.9943641, "lng": 121.4623541 }
  },
  {
    "name": "新北市三重區二重國民小學附設幼兒園",
    "address": "[241]新北市三重區二重里14鄰大有街10號",
    "location": { "lat": 25.0657511, "lng": 121.477679 }
  },
  {
    "name": "新北市立三重幼兒園",
    "address": "[241]新北市三重區過田里4鄰新北大道一段9號3樓",
    "location": { "lat": 25.0611183, "lng": 121.4888823 }
  },
  {
    "name": "新北市板橋區溪洲國民小學附設幼兒園",
    "address": "[220]新北市板橋區溪福里19鄰金門街289號",
    "location": { "lat": 24.9873416, "lng": 121.4308822 }
  },
  {
    "name": "新北市立三重高級中學附設幼兒園",
    "address": "[241]新北市三重區光明里19鄰集美街212號",
    "location": { "lat": 25.054741, "lng": 121.4914967 }
  },
  {
    "name": "新北市三重區集美國民小學附設幼兒園",
    "address": "[241]新北市三重區光明里25鄰集美街10號",
    "location": { "lat": 25.05656, "lng": 121.4880016 }
  },
  {
    "name": "新北市三重區三光國民小學附設幼兒園",
    "address": "[241]新北市三重區同安里16鄰大同南路157號",
    "location": { "lat": 25.0563509, "lng": 121.4966397 }
  },
  {
    "name": "新北市三重區光興國民小學附設幼兒園",
    "address": "[241]新北市三重區光輝里14鄰正義南路62號",
    "location": { "lat": 25.059034, "lng": 121.498799 }
  },
  {
    "name": "新北市立明志國民中學附設幼兒園",
    "address": "[241]新北市三重區重陽里15鄰中正北路107號",
    "location": { "lat": 25.0634787, "lng": 121.4890227 }
  },
  {
    "name": "新北市三重區修德國民小學附設幼兒園",
    "address": "[241]新北市三重區民生里18鄰重陽路三段3號",
    "location": { "lat": 25.06579, "lng": 121.4898282 }
  },
  {
    "name": "新北市三重區正義國民小學附設幼兒園",
    "address": "[241]新北市三重區正義里1鄰信義西街31號",
    "location": { "lat": 25.0645537, "lng": 121.4961518 }
  },
  {
    "name": "新北市三重區三重國民小學附設幼兒園",
    "address": "[241]新北市三重區奕壽里2鄰三和路3段1號",
    "location": { "lat": 25.0699908, "lng": 121.4981736 }
  },
  {
    "name": "新北市三重區光榮國民小學附設幼兒園",
    "address": "[241]新北市三重區奕壽里1鄰介壽路32號",
    "location": { "lat": 25.0708471, "lng": 121.5013491 }
  },
  {
    "name": "新北市立光榮國民中學附設幼兒園",
    "address": "[241]新北市三重區奕壽里1鄰介壽路26號",
    "location": { "lat": 25.0704534, "lng": 121.4999178 }
  },
  {
    "name": "新北市三重區重陽國民小學附設幼兒園",
    "address": "[241]新北市三重區六福里16鄰中正北路113號",
    "location": { "lat": 25.066668, "lng": 121.4839082 }
  },
  {
    "name": "新北市立三重幼兒園崇德分班",
    "address": "[241]新北市三重區崇德里17鄰仁孝街62號1樓",
    "location": { "lat": 25.0746292, "lng": 121.497257 }
  },
  {
    "name": "新北市立三重幼兒園厚德分班",
    "address": "[241]新北市三重區厚德里4鄰忠孝路一段21巷7號1樓、2樓",
    "location": { "lat": 25.072542, "lng": 121.4918577 }
  },
  {
    "name": "新北市立三和國民中學附設幼兒園",
    "address": "[241]新北市三重區永盛里15鄰三和路四段216號",
    "location": { "lat": 25.0763803, "lng": 121.4868247 }
  },
  {
    "name": "新北市三重區永福國民小學附設幼兒園",
    "address": "[241]新北市三重區永福里22鄰永福街66號",
    "location": { "lat": 25.0769701, "lng": 121.4800481 }
  },
  {
    "name": "新北市立碧華國民中學附設幼兒園",
    "address": "[241]新北市三重區五福里15鄰自強路五段66號",
    "location": { "lat": 25.082306, "lng": 121.4950713 }
  },
  {
    "name": "新北市三重區五華國民小學附設幼兒園",
    "address": "[241]新北市三重區富貴里21鄰集賢路89號",
    "location": { "lat": 25.0881883, "lng": 121.4916924 }
  },
  {
    "name": "新北市三重區碧華國民小學附設幼兒園",
    "address": "[241]新北市三重區富福里20鄰五華街160號",
    "location": { "lat": 25.0851935, "lng": 121.4900293 }
  },
  {
    "name": "新北市三重區厚德國民小學附設幼兒園",
    "address": "[241]新北市三重區立德里4鄰忠孝路一段70號1樓",
    "location": { "lat": 25.071969, "lng": 121.4899833 }
  },
  {
    "name": "新北市中和區光復國民小學附設幼兒園",
    "address": "[235]新北市中和區中原里7鄰光環路2段1號",
    "location": { "lat": 25.0147813, "lng": 121.4825341 }
  },
  {
    "name": "新北市三重區興穀國民小學附設幼兒園",
    "address": "[241]新北市三重區五谷里7鄰五谷王北街46號",
    "location": { "lat": 25.0505083, "lng": 121.4759528 }
  },
  {
    "name": "新北市立漳和國民中學附設幼兒園",
    "address": "[235]新北市中和區枋寮里19鄰廣福路39號",
    "location": { "lat": 25.002636, "lng": 121.5054821 }
  },
  {
    "name": "新北市中和區中和國民小學附設幼兒園",
    "address": "[235]新北市中和區漳和里3鄰中和路100號",
    "location": { "lat": 24.9997062, "lng": 121.5016103 }
  },
  {
    "name": "新北市中和區秀山國民小學附設幼兒園",
    "address": "[235]新北市中和區秀山里1鄰立人街2號",
    "location": { "lat": 24.9943068, "lng": 121.5210375 }
  },
  {
    "name": "新北市立中和幼兒園秀山分班",
    "address": "[235]新北市中和區秀景里19鄰成功路97巷7號",
    "location": { "lat": 24.991372, "lng": 121.526799 }
  },
  {
    "name": "新北市立中和幼兒園飛駝分班",
    "address": "[235]新北市中和區華南里9鄰忠孝街48號",
    "location": { "lat": 24.9834153, "lng": 121.5112223 }
  },
  {
    "name": "新北市中和區興南國民小學附設幼兒園",
    "address": "[235]新北市中和區忠孝里27鄰興南路1段135巷24號",
    "location": { "lat": 24.9869863, "lng": 121.5095508 }
  },
  {
    "name": "新北市立中和幼兒園",
    "address": "[235]新北市中和區外南里2鄰南山路236號3樓",
    "location": { "lat": 24.989692, "lng": 121.5064791 }
  },
  {
    "name": "新北市立中和國民中學附設幼兒園",
    "address": "[235]新北市中和區忠孝里11鄰興南路二段三巷十七號",
    "location": { "lat": 24.9861997, "lng": 121.5080636 }
  },
  {
    "name": "新北市立中和幼兒園碧湖分班",
    "address": "[235]新北市中和區錦昌里11鄰圓通路367巷15-1號1~3樓",
    "location": { "lat": 24.9875055, "lng": 121.4923112 }
  },
  {
    "name": "新北市中和區景新國民小學附設幼兒園",
    "address": "[235]新北市中和區景南里31鄰景新街467巷37號",
    "location": { "lat": 24.9895503, "lng": 121.5157675 }
  },
  {
    "name": "新北市立自強國民中學附設幼兒園",
    "address": "[235]新北市中和區明穗里24鄰莒光路191號",
    "location": { "lat": 24.9988043, "lng": 121.4726327 }
  },
  {
    "name": "新北市中和區積穗國民小學附設幼兒園",
    "address": "[235]新北市中和區文元里1鄰員山路154號",
    "location": { "lat": 24.9991603, "lng": 121.4815052 }
  },
  {
    "name": "新北市中和區自強國民小學附設幼兒園",
    "address": "[235]新北市中和區自強里3鄰莒光路200號",
    "location": { "lat": 24.9983879, "lng": 121.471818 }
  },
  {
    "name": "新北市立中和幼兒園慈光分班",
    "address": "[235]新北市中和區明德里11鄰民德路311號1樓",
    "location": { "lat": 24.9947231, "lng": 121.4673462 }
  },
  {
    "name": "新北市中和區復興國民小學附設幼兒園",
    "address": "[235]新北市中和區中興里30鄰復興路301巷6號",
    "location": { "lat": 24.9896836, "lng": 121.5018857 }
  },
  {
    "name": "新北市中和區錦和國民小學附設幼兒園",
    "address": "[235]新北市中和區錦中里16鄰圓通路292號",
    "location": { "lat": 24.9893057, "lng": 121.4896119 }
  },
  {
    "name": "新北市永和區頂溪國民小學附設幼兒園",
    "address": "[234]新北市永和區文化里9鄰文化路133號",
    "location": { "lat": 25.0155338, "lng": 121.5116017 }
  },
  {
    "name": "新北市立永和幼兒園大同分班",
    "address": "[234]新北市永和區永成里9鄰新生路26號",
    "location": { "lat": 25.0162576, "lng": 121.5087265 }
  },
  {
    "name": "新北市永和區永平國民小學附設幼兒園",
    "address": "[234]新北市永和區保安里27鄰保生路25號",
    "location": { "lat": 25.0078768, "lng": 121.5057539 }
  },
  {
    "name": "新北市立永和幼兒園",
    "address": "[234]新北市永和區民族里12鄰民權路60號1樓至3樓",
    "location": { "lat": 24.9977764, "lng": 121.51994 }
  },
  {
    "name": "新北市永和區秀朗國民小學附設幼兒園",
    "address": "[234]新北市永和區民權里1鄰得和路202號",
    "location": { "lat": 24.9994427, "lng": 121.5221815 }
  },
  {
    "name": "新北市立永和幼兒園忠孝分班",
    "address": "[234]新北市永和區頂溪里7鄰忠孝街26巷8號1樓至2樓",
    "location": { "lat": 25.0169606, "lng": 121.5153157 }
  },
  {
    "name": "新北市永和區永和國民小學附設幼兒園",
    "address": "[234]新北市永和區潭墘里20鄰秀朗路一段120號",
    "location": { "lat": 25.003372, "lng": 121.516772 }
  },
  {
    "name": "新北市立永和幼兒園博愛分班",
    "address": "[234]新北市永和區復興里13鄰竹林路39巷35號1樓至3樓",
    "location": { "lat": 25.0153764, "lng": 121.5201384 }
  },
  {
    "name": "新北市立永和幼兒園保生分班",
    "address": "[234]新北市永和區新生里18鄰新生路218號1樓、2樓",
    "location": { "lat": 25.0130623, "lng": 121.5052831 }
  },
  {
    "name": "新北市立福和國民中學附設幼兒園",
    "address": "[234]新北市永和區秀和里18鄰永利路71號",
    "location": { "lat": 25.0040252, "lng": 121.5208617 }
  },
  {
    "name": "新北市永和區網溪國民小學附設幼兒園",
    "address": "[234]新北市永和區上林里21鄰竹林路79號",
    "location": { "lat": 25.0130556, "lng": 121.5194444 }
  },
  {
    "name": "新北市立永和幼兒園福和分班",
    "address": "[234]新北市永和區桂林里7鄰竹林路119巷53弄16號1樓至3樓",
    "location": { "lat": 25.0122242, "lng": 121.522512 }
  },
  {
    "name": "新北市立永和幼兒園民生分班",
    "address": "[234]新北市永和區永樂里1鄰安樂路431-1號2樓",
    "location": { "lat": 25.0042916, "lng": 121.5141393 }
  },
  {
    "name": "新北市新莊區頭前國民小學附設幼兒園",
    "address": "[242]新北市新莊區頭前里10鄰化成路231號",
    "location": { "lat": 25.0528262, "lng": 121.4661311 }
  },
  {
    "name": "新北市新莊區新泰國民小學附設幼兒園",
    "address": "[242]新北市新莊區忠孝里27鄰公園一路91號",
    "location": { "lat": 25.037911, "lng": 121.4437563 }
  },
  {
    "name": "新北市新莊區裕民國民小學附設幼兒園",
    "address": "[242]新北市新莊區裕民里21鄰裕民街123號",
    "location": { "lat": 25.0218042, "lng": 121.4180333 }
  },
  {
    "name": "新北市新莊區新莊國民小學附設幼兒園",
    "address": "[242]新北市新莊區立人里1鄰中正路86號",
    "location": { "lat": 25.0369306, "lng": 121.455941 }
  },
  {
    "name": "新北市新莊區豐年國民小學附設幼兒園",
    "address": "[242]新北市新莊區國泰里2鄰瓊泰路116號",
    "location": { "lat": 25.0308533, "lng": 121.44337 }
  },
  {
    "name": "新北市立頭前國民中學附設幼兒園",
    "address": "[242]新北市新莊區和平里21鄰中原路2號",
    "location": { "lat": 25.0546978, "lng": 121.4590608 }
  },
  {
    "name": "新北市新莊區國泰國民小學附設幼兒園",
    "address": "[242]新北市新莊區營盤里1鄰中正路386號",
    "location": { "lat": 25.0342171, "lng": 121.4417041 }
  },
  {
    "name": "新北市新莊區中港國民小學附設幼兒園",
    "address": "[242]新北市新莊區立志里11鄰中港一街142號",
    "location": { "lat": 25.0452576, "lng": 121.4476936 }
  },
  {
    "name": "新北市新莊區光華國民小學附設幼兒園",
    "address": "[242]新北市新莊區光明里1鄰龍安路452號",
    "location": { "lat": 25.0178239, "lng": 121.4251486 }
  },
  {
    "name": "新北市新莊區思賢國民小學附設幼兒園",
    "address": "[242]新北市新莊區自立里9鄰自立街229號",
    "location": { "lat": 25.0456132, "lng": 121.456604 }
  },
  {
    "name": "新北市新莊區丹鳳國民小學附設幼兒園",
    "address": "[242]新北市新莊區雙鳳里14鄰新北大道七段437號",
    "location": { "lat": 25.0241064, "lng": 121.4137536 }
  },
  {
    "name": "新北市立新莊幼兒園",
    "address": "[242]新北市新莊區中華里14鄰中港路350號",
    "location": { "lat": 25.0464969, "lng": 121.4519486 }
  },
  {
    "name": "新北市新莊區中信國民小學附設幼兒園",
    "address": "[242]新北市新莊區中原里1鄰中信街168號",
    "location": { "lat": 25.0562018, "lng": 121.4479722 }
  },
  {
    "name": "新北市立新泰國民中學附設幼兒園",
    "address": "[242]新北市新莊區立泰里14鄰新泰路359號",
    "location": { "lat": 25.0426138, "lng": 121.4443469 }
  },
  {
    "name": "新北市立新莊幼兒園中心分班",
    "address": "[242]新北市新莊區福營里14鄰福營路277號",
    "location": { "lat": 25.029391, "lng": 121.427804 }
  },
  {
    "name": "新北市新莊區興化國民小學附設幼兒園",
    "address": "[242]新北市新莊區福興里2鄰五工二路50巷2號",
    "location": { "lat": 25.065854, "lng": 121.461594 }
  },
  {
    "name": "新北市新莊區昌隆國民小學附設幼兒園",
    "address": "[242]新北市新莊區昌隆里6鄰昌隆街63號",
    "location": { "lat": 25.0509984, "lng": 121.4559874 }
  },
  {
    "name": "新北市新莊區榮富國民小學附設幼兒園",
    "address": "[242]新北市新莊區中平里7鄰中和街193號",
    "location": { "lat": 25.0513324, "lng": 121.4473601 }
  },
  {
    "name": "新北市立新莊幼兒園三合分班",
    "address": "[242]新北市新莊區泰豐里6鄰瓊林路34號",
    "location": { "lat": 25.0310613, "lng": 121.4487764 }
  },
  {
    "name": "新北市新莊區民安國民小學附設幼兒園",
    "address": "[242]新北市新莊區民全里1鄰民安路261號",
    "location": { "lat": 25.0220458, "lng": 121.4267835 }
  },
  {
    "name": "新北市立安康高級中學附設幼兒園",
    "address": "[231]新北市新店區柴埕里30鄰安興路25號",
    "location": { "lat": 24.9694528, "lng": 121.5153 }
  },
  {
    "name": "新北市新店區新和國民小學附設幼兒園",
    "address": "[231]新北市新店區永安里3鄰安和路三段100號",
    "location": { "lat": 24.9846812, "lng": 121.5181625 }
  },
  {
    "name": "新北市新店區安坑國民小學附設幼兒園",
    "address": "[231]新北市新店區公崙里17鄰安忠路36號",
    "location": { "lat": 24.9614641, "lng": 121.5142985 }
  },
  {
    "name": "新北市新店區大豐國民小學附設幼兒園",
    "address": "[231]新北市新店區大豐里17鄰民族路108號",
    "location": { "lat": 24.977528, "lng": 121.5382056 }
  },
  {
    "name": "新北市立新店幼兒園雙城分班",
    "address": "[231]新北市新店區雙城里7鄰安康路三段165巷2弄29號",
    "location": { "lat": 24.9514539, "lng": 121.48805 }
  },
  {
    "name": "新北市新店區雙城國民小學附設幼兒園",
    "address": "[231]新北市新店區雙城里11鄰安康路3段322號",
    "location": { "lat": 24.9518624, "lng": 121.4863663 }
  },
  {
    "name": "新北市新店區青潭國民小學附設幼兒園",
    "address": "[231]新北市新店區美潭里3鄰北宜路二段八十號",
    "location": { "lat": 24.9536129, "lng": 121.555917 }
  },
  {
    "name": "新北市新店區雙峰國民小學附設幼兒園",
    "address": "[231]新北市新店區雙坑里1鄰北宜路三段66號",
    "location": { "lat": 24.9513603, "lng": 121.5754065 }
  },
  {
    "name": "新北市新店區屈尺國民小學附設幼兒園",
    "address": "[231]新北市新店區屈尺里10鄰屈尺路55號",
    "location": { "lat": 24.9225975, "lng": 121.5470266 }
  },
  {
    "name": "新北市新店區龜山國民小學附設幼兒園",
    "address": "[231]新北市新店區龜山里3鄰新烏路3段99巷10號",
    "location": { "lat": 24.9021364, "lng": 121.5531847 }
  },
  {
    "name": "新北市新店區直潭國民小學附設幼兒園",
    "address": "[231]新北市新店區直潭里20鄰直潭路92號",
    "location": { "lat": 24.9377936, "lng": 121.5309584 }
  },
  {
    "name": "新北市立新店幼兒園新店分班",
    "address": "[231]新北市新店區新店里11鄰新店路207號1、2樓",
    "location": { "lat": 24.956793, "lng": 121.537049 }
  },
  {
    "name": "新北市新店區新店國民小學附設幼兒園",
    "address": "[231]新北市新店區國校里10鄰新店路2號",
    "location": { "lat": 24.9529938, "lng": 121.5402904 }
  },
  {
    "name": "新北市立五峰國民中學附設幼兒園",
    "address": "[231]新北市新店區五?里3鄰中興路一段253號",
    "location": { "lat": 24.9667222, "lng": 121.5441602 }
  },
  {
    "name": "新北市新店區中正國民小學附設幼兒園",
    "address": "[231]新北市新店區中正里22鄰三民路36號",
    "location": { "lat": 24.9718132, "lng": 121.5366677 }
  },
  {
    "name": "新北市新店區北新國民小學附設幼兒園",
    "address": "[231]新北市新店區張北里9鄰寶橋路8號",
    "location": { "lat": 24.9742987, "lng": 121.54472 }
  },
  {
    "name": "新北市立新店幼兒園和平分班",
    "address": "[231]新北市新店區和平里10鄰民生路147號",
    "location": { "lat": 24.9808518, "lng": 121.5287957 }
  },
  {
    "name": "新北市立新店幼兒園",
    "address": "[231]新北市新店區新和里12鄰新和街109號1、2樓",
    "location": { "lat": 24.9871528, "lng": 121.5215146 }
  },
  {
    "name": "新北市樹林區三多國民小學附設幼兒園",
    "address": "[238]新北市樹林區三福里23鄰三福街52號",
    "location": { "lat": 25.0164155, "lng": 121.4060149 }
  },
  {
    "name": "新北市立樹林幼兒園圳安分班",
    "address": "[238]新北市樹林區圳安里1鄰俊英街98之1號",
    "location": { "lat": 25.0051073, "lng": 121.4277593 }
  },
  {
    "name": "新北市樹林區文林國民小學附設幼兒園",
    "address": "[238]新北市樹林區潭底里32鄰千歲街59號",
    "location": { "lat": 24.9975343, "lng": 121.4260832 }
  },
  {
    "name": "新北市樹林區樹林國民小學附設幼兒園",
    "address": "[238]新北市樹林區樹西里13鄰育英街176號",
    "location": { "lat": 24.9898163, "lng": 121.4180796 }
  },
  {
    "name": "新北市樹林區育林國民小學附設幼兒園",
    "address": "[238]新北市樹林區樹南里14鄰復興路395號",
    "location": { "lat": 24.9857596, "lng": 121.4156666 }
  },
  {
    "name": "新北市樹林區大同國民小學附設幼兒園",
    "address": "[238]新北市樹林區大同里2鄰大同街43號",
    "location": { "lat": 24.9813252, "lng": 121.4174652 }
  },
  {
    "name": "新北市立樹林幼兒園",
    "address": "[238]新北市樹林區樹南里3鄰文化街15號",
    "location": { "lat": 24.9874162, "lng": 121.4196307 }
  },
  {
    "name": "新北市立樹林幼兒園彭厝分班",
    "address": "[238]新北市樹林區大同里4鄰太平路56巷43號",
    "location": { "lat": 24.9813413, "lng": 121.4177623 }
  },
  {
    "name": "新北市樹林區彭福國民小學附設幼兒園",
    "address": "[238]新北市樹林區和平里11鄰忠孝街30號",
    "location": { "lat": 24.9814636, "lng": 121.4239611 }
  },
  {
    "name": "新北市立柑園國民中學附設幼兒園",
    "address": "[238]新北市樹林區柑園里6鄰柑園街2段125號",
    "location": { "lat": 24.9547066, "lng": 121.3841873 }
  },
  {
    "name": "新北市樹林區武林國民小學附設幼兒園",
    "address": "[238]新北市樹林區金寮里8鄰保安街二段151號",
    "location": { "lat": 25.0016912, "lng": 121.4153651 }
  },
  {
    "name": "新北市樹林區山佳國民小學附設幼兒園",
    "address": "[238]新北市樹林區山佳里15鄰中山路三段5號",
    "location": { "lat": 24.9754914, "lng": 121.4017467 }
  },
  {
    "name": "新北市樹林區育德國民小學附設幼兒園",
    "address": "[238]新北市樹林區中山里5鄰佳園路一段34號",
    "location": { "lat": 24.9708726, "lng": 121.3925044 }
  },
  {
    "name": "新北市立樹林幼兒園山佳分班",
    "address": "[238]新北市樹林區中山里1鄰中山路三段40號",
    "location": { "lat": 24.9726611, "lng": 121.3947177 }
  },
  {
    "name": "新北市立鶯歌國民中學附設幼兒園",
    "address": "[239]新北市鶯歌區同慶里13鄰尖山埔路108號",
    "location": { "lat": 24.9504584, "lng": 121.3448534 }
  },
  {
    "name": "新北市鶯歌區鶯歌國民小學附設幼兒園",
    "address": "[239]新北市鶯歌區同慶里1鄰尖山埔路106號",
    "location": { "lat": 24.9511444, "lng": 121.3459083 }
  },
  {
    "name": "新北市立尖山國民中學附設幼兒園",
    "address": "[239]新北市鶯歌區尖山里16鄰國中街1號",
    "location": { "lat": 24.9436969, "lng": 121.3421559 }
  },
  {
    "name": "新北市鶯歌區二橋國民小學附設幼兒園",
    "address": "[239]新北市鶯歌區二橋里2鄰中正三路106號",
    "location": { "lat": 24.9410772, "lng": 121.3377567 }
  },
  {
    "name": "新北市立鳳鳴國民中學附設幼兒園",
    "address": "[239]新北市鶯歌區鳳鳴里16鄰永和街33號",
    "location": { "lat": 24.967511, "lng": 121.331827 }
  },
  {
    "name": "新北市鶯歌區鳳鳴國民小學附設幼兒園",
    "address": "[239]新北市鶯歌區鳳鳴里18鄰永和街120號",
    "location": { "lat": 24.969172, "lng": 121.334826 }
  },
  {
    "name": "新北市鶯歌區永吉國民小學附設幼兒園",
    "address": "[239]新北市鶯歌區永吉里4鄰德昌二街2號",
    "location": { "lat": 24.959045, "lng": 121.332739 }
  },
  {
    "name": "新北市鶯歌區中湖國民小學附設幼兒園",
    "address": "[239]新北市鶯歌區中湖里9鄰中湖街25號",
    "location": { "lat": 24.9728344, "lng": 121.3479281 }
  },
  {
    "name": "新北市立鶯歌幼兒園",
    "address": "[239]新北市鶯歌區中湖里7鄰大湖路336號",
    "location": { "lat": 24.9728746, "lng": 121.3446101 }
  },
  {
    "name": "新北市鶯歌區建國國民小學附設幼兒園",
    "address": "[239]新北市鶯歌區建國里18鄰育英街2號",
    "location": { "lat": 24.9549962, "lng": 121.3468027 }
  },
  {
    "name": "新北市三峽區三峽國民小學附設幼兒園",
    "address": "[237]新北市三峽區永?里16鄰中山路16號",
    "location": { "lat": 24.9348504, "lng": 121.3695626 }
  },
  {
    "name": "新北市立三峽國民中學附設幼兒園",
    "address": "[237]新北市三峽區鳶山里6鄰復興路238號",
    "location": { "lat": 24.939053, "lng": 121.369127 }
  },
  {
    "name": "新北市立三峽幼兒園龍埔分班",
    "address": "[237]新北市三峽區龍埔里6鄰三樹路214巷9號",
    "location": { "lat": 24.9418034, "lng": 121.3798518 }
  },
  {
    "name": "新北市三峽區大埔國民小學附設幼兒園",
    "address": "[237]新北市三峽區大埔里17鄰大埔路130號",
    "location": { "lat": 24.9057054, "lng": 121.3662754 }
  },
  {
    "name": "新北市三峽區民義國民小學附設幼兒園",
    "address": "[237]新北市三峽區嘉添里2鄰白雞路40號",
    "location": { "lat": 24.9120315, "lng": 121.37561 }
  },
  {
    "name": "新北市三峽區五寮國民小學附設幼兒園",
    "address": "[237]新北市三峽區五寮里14鄰69號",
    "location": { "lat": 24.8589276, "lng": 121.3597717 }
  },
  {
    "name": "新北市三峽區插角國民小學附設幼兒園",
    "address": "[237]新北市三峽區插角里14鄰39號",
    "location": { "lat": 24.867158, "lng": 121.4056153 }
  },
  {
    "name": "新北市立三峽幼兒園",
    "address": "[237]新北市三峽區溪東里10鄰溪東路218巷1號2樓",
    "location": { "lat": 24.931181, "lng": 121.407794 }
  },
  {
    "name": "新北市三峽區建安國民小學附設幼兒園",
    "address": "[237]新北市三峽區安坑里15鄰建安路67號",
    "location": { "lat": 24.9267136, "lng": 121.4473939 }
  },
  {
    "name": "新北市立三峽幼兒園中興分班",
    "address": "[237]新北市三峽區溪南里7鄰介壽路二段136巷63號",
    "location": { "lat": 24.932683, "lng": 121.391707 }
  },
  {
    "name": "新北市三峽區介壽國民小學附設幼兒園",
    "address": "[237]新北市三峽區介壽里21鄰大同路1號",
    "location": { "lat": 24.9291318, "lng": 121.3778682 }
  },
  {
    "name": "新北市淡水區中泰國民小學附設幼兒園",
    "address": "[251]新北市淡水區中和里9鄰北勢子5號",
    "location": { "lat": 25.2240497, "lng": 121.4844726 }
  },
  {
    "name": "新北市淡水區屯山國民小學附設幼兒園",
    "address": "[251]新北市淡水區屯山里6鄰淡金路5段111號",
    "location": { "lat": 25.237288, "lng": 121.456325 }
  },
  {
    "name": "新北市立安溪國民中學附設幼兒園",
    "address": "[237]新北市三峽區中正里14鄰大同路135號",
    "location": { "lat": 24.9266425, "lng": 121.3728213 }
  },
  {
    "name": "新北市淡水區興仁國民小學附設幼兒園",
    "address": "[251]新北市淡水區興仁里4鄰興仁路101巷10號",
    "location": { "lat": 25.2174986, "lng": 121.4512794 }
  },
  {
    "name": "新北市淡水區忠山國民小學附設幼兒園",
    "address": "[251]新北市淡水區忠山里16鄰行忠路899號",
    "location": { "lat": 25.2004145, "lng": 121.4799327 }
  },
  {
    "name": "新北市淡水區育英國民小學附設幼兒園",
    "address": "[251]新北市淡水區埤島里4鄰埤頭14號",
    "location": { "lat": 25.214035, "lng": 121.462287 }
  },
  {
    "name": "新北市淡水區新興國民小學附設幼兒園",
    "address": "[251]新北市淡水區新興里21鄰新興街123號",
    "location": { "lat": 25.1797101, "lng": 121.4400679 }
  },
  {
    "name": "新北市立淡水幼兒園",
    "address": "[251]新北市淡水區水碓里17鄰中山北路1段158號1樓",
    "location": { "lat": 25.1780828, "lng": 121.4442216 }
  },
  {
    "name": "新北市淡水區新市國民小學附設幼兒園",
    "address": "[251]新北市淡水區北投里17鄰中山北路2段200號1樓",
    "location": { "lat": 25.1864221, "lng": 121.4443951 }
  },
  {
    "name": "新北市淡水區水源國民小學附設幼兒園",
    "address": "[251]新北市淡水區水源里9鄰北新路2段15號",
    "location": { "lat": 25.1858379, "lng": 121.4765516 }
  },
  {
    "name": "新北市淡水區坪頂國民小學附設幼兒園",
    "address": "[251]新北市淡水區坪頂里3鄰小坪頂18號",
    "location": { "lat": 25.1580198, "lng": 121.4838746 }
  },
  {
    "name": "新北市立淡水幼兒園福德分班",
    "address": "[251]新北市淡水區福德里17鄰自強路201巷43號1樓、45號1樓、47號1樓",
    "location": { "lat": 25.1272105, "lng": 121.4627193 }
  },
  {
    "name": "新北市立淡水幼兒園竹圍分班",
    "address": "[251]新北市淡水區民生里19鄰民生路27號1、2、3樓",
    "location": { "lat": 25.1380129, "lng": 121.4612388 }
  },
  {
    "name": "新北市淡水區竹圍國民小學附設幼兒園",
    "address": "[251]新北市淡水區八勢里2鄰中正東路2段145號",
    "location": { "lat": 25.1477511, "lng": 121.460767 }
  },
  {
    "name": "新北市淡水區淡水國民小學附設幼兒園",
    "address": "[251]新北市淡水區協元里4鄰中山路160號",
    "location": { "lat": 25.1729921, "lng": 121.4408735 }
  },
  {
    "name": "新北市淡水區文化國民小學附設幼兒園",
    "address": "[251]新北市淡水區文化里8鄰真理街6號1樓",
    "location": { "lat": 25.173776, "lng": 121.4374852 }
  },
  {
    "name": "新北市立淡水國民中學附設幼兒園",
    "address": "[251]新北市淡水區文化里10鄰真理街10號",
    "location": { "lat": 25.174753, "lng": 121.4365484 }
  },
  {
    "name": "新北市淡水區鄧公國民小學附設幼兒園",
    "address": "[251]新北市淡水區學府里4鄰學府路99號",
    "location": { "lat": 25.1714436, "lng": 121.4494649 }
  },
  {
    "name": "新北市淡水區天生國民小學附設幼兒園",
    "address": "[251]新北市淡水區油車里12鄰淡海路72巷26號",
    "location": { "lat": 25.181506, "lng": 121.424601 }
  },
  {
    "name": "新北市汐止區汐止國民小學附設幼兒園",
    "address": "[221]新北市汐止區智慧里7鄰大同路二段313號",
    "location": { "lat": 25.0667758, "lng": 121.6550344 }
  },
  {
    "name": "新北市汐止區長安國民小學附設幼兒園",
    "address": "[221]新北市汐止區長安里11鄰長興街1段80號",
    "location": { "lat": 25.0793147, "lng": 121.6707885 }
  },
  {
    "name": "新北市汐止區崇德國民小學附設幼兒園",
    "address": "[221]新北市汐止區茄苳里1鄰茄苳路158號",
    "location": { "lat": 25.0695778, "lng": 121.6691867 }
  },
  {
    "name": "新北市汐止區保長國民小學附設幼兒園",
    "address": "[221]新北市汐止區保安里8鄰大同路三段553號",
    "location": { "lat": 25.071773, "lng": 121.680851 }
  },
  {
    "name": "新北市汐止區北港國民小學附設幼兒園",
    "address": "[221]新北市汐止區拱北里13鄰汐萬路二段279號",
    "location": { "lat": 25.0894044, "lng": 121.6455949 }
  },
  {
    "name": "新北市汐止區金龍國民小學附設幼兒園",
    "address": "[221]新北市汐止區北峰里6鄰明峰街201號",
    "location": { "lat": 25.0685754, "lng": 121.6277344 }
  },
  {
    "name": "新北市汐止區白雲國民小學附設幼兒園",
    "address": "[221]新北市汐止區福山里6鄰民權街二段90號",
    "location": { "lat": 25.04766, "lng": 121.618851 }
  },
  {
    "name": "新北市汐止區北峰國民小學附設幼兒園",
    "address": "[221]新北市汐止區中興里32鄰環河街1號",
    "location": { "lat": 25.0624698, "lng": 121.6315904 }
  },
  {
    "name": "新北市汐止區樟樹國民小學附設幼兒園",
    "address": "[221]新北市汐止區厚德里6鄰樟樹一路141巷2號",
    "location": { "lat": 25.0664982, "lng": 121.6417674 }
  },
  {
    "name": "新北市汐止區秀峰國民小學附設幼兒園",
    "address": "[221]新北市汐止區秀山里5鄰仁愛路90號",
    "location": { "lat": 25.0629258, "lng": 121.661449 }
  },
  {
    "name": "新北市瑞芳區瑞芳國民小學附設幼兒園",
    "address": "[224]新北市瑞芳區龍潭里10鄰中山路2號",
    "location": { "lat": 25.1086002, "lng": 121.8071483 }
  },
  {
    "name": "新北市立青山國民中小學附設幼兒園",
    "address": "[221]新北市汐止區自強里20鄰莊敬街33號",
    "location": { "lat": 25.0611576, "lng": 121.6566533 }
  },
  {
    "name": "新北市瑞芳區義方國民小學附設幼兒園",
    "address": "[224]新北市瑞芳區龍山里10鄰逢甲路360號",
    "location": { "lat": 25.1129903, "lng": 121.8023651 }
  },
  {
    "name": "新北市立瑞芳幼兒園龍川分班",
    "address": "[224]新北市瑞芳區龍川里2鄰明燈路三段105號2樓",
    "location": { "lat": 25.1085837, "lng": 121.8038227 }
  },
  {
    "name": "新北市瑞芳區瑞柑國民小學附設幼兒園",
    "address": "[224]新北市瑞芳區柑坪里12鄰明燈路1段18巷13號",
    "location": { "lat": 25.1074927, "lng": 121.82326 }
  },
  {
    "name": "新北市立瑞芳幼兒園",
    "address": "[224]新北市瑞芳區東和里1鄰中山路48號之10",
    "location": { "lat": 25.1068497, "lng": 121.8035137 }
  },
  {
    "name": "新北市立瑞芳幼兒園爪峰分班",
    "address": "[224]新北市瑞芳區爪?里5鄰三爪子坑路66之6號",
    "location": { "lat": 25.1055254, "lng": 121.8104396 }
  },
  {
    "name": "新北市瑞芳區吉慶國民小學附設幼兒園",
    "address": "[224]新北市瑞芳區吉安里6鄰大埔路95號",
    "location": { "lat": 25.0998492, "lng": 121.7630958 }
  },
  {
    "name": "新北市立瑞芳幼兒園吉安分班",
    "address": "[224]新北市瑞芳區吉安里5鄰大埔路23巷20之1號2樓",
    "location": { "lat": 25.101109, "lng": 121.7610633 }
  },
  {
    "name": "新北市瑞芳區瑞亭國民小學附設幼兒園",
    "address": "[224]新北市瑞芳區上天里3鄰四腳亭埔路23號",
    "location": { "lat": 25.1027989, "lng": 121.7776044 }
  },
  {
    "name": "新北市立瑞芳幼兒園傑魚分班",
    "address": "[224]新北市瑞芳區傑魚里3鄰傑魚坑路245巷2之1號1樓",
    "location": { "lat": 25.1065348, "lng": 121.7880209 }
  },
  {
    "name": "新北市瑞芳區猴硐國民小學附設幼兒園",
    "address": "[224]新北市瑞芳區弓橋里2鄰九芎橋路69-1號",
    "location": { "lat": 25.0957485, "lng": 121.8334055 }
  },
  {
    "name": "新北市瑞芳區九份國民小學附設幼兒園",
    "address": "[224]新北市瑞芳區永慶里10鄰崙頂路145號",
    "location": { "lat": 25.1072093, "lng": 121.8436 }
  },
  {
    "name": "新北市瑞芳區濂洞國民小學附設幼兒園",
    "address": "[224]新北市瑞芳區?洞里11鄰洞頂路101巷80號",
    "location": { "lat": 25.12194, "lng": 121.8603138 }
  },
  {
    "name": "新北市立瑞芳幼兒園海濱分班",
    "address": "[224]新北市瑞芳區海濱里9鄰濱二路68之1號",
    "location": { "lat": 25.1200461, "lng": 121.8300216 }
  },
  {
    "name": "新北市瑞芳區瓜山國民小學附設幼兒園",
    "address": "[224]新北市瑞芳區石山里4鄰五號路306號",
    "location": { "lat": 25.1112805, "lng": 121.8568951 }
  },
  {
    "name": "新北市瑞芳區鼻頭國民小學附設幼兒園",
    "address": "[224]新北市瑞芳區鼻頭里5鄰鼻頭路99號",
    "location": { "lat": 25.120923, "lng": 121.919092 }
  },
  {
    "name": "新北市立瑞芳國民中學附設幼兒園",
    "address": "[224]新北市瑞芳區新峰里2鄰三爪子坑路1號",
    "location": { "lat": 25.1061897, "lng": 121.8128547 }
  },
  {
    "name": "新北市瑞芳區瑞濱國民小學附設幼兒園",
    "address": "[224]新北市瑞芳區瑞濱里4鄰瑞濱路34號",
    "location": { "lat": 25.1204932, "lng": 121.8202807 }
  },
  {
    "name": "新北市土城區土城國民小學附設幼兒園",
    "address": "[236]新北市土城區埤塘里12鄰興城路17號",
    "location": { "lat": 24.972563, "lng": 121.4424728 }
  },
  {
    "name": "新北市土城區樂利國民小學附設幼兒園",
    "address": "[236]新北市土城區日新里11鄰裕生路65號",
    "location": { "lat": 24.9855155, "lng": 121.4475994 }
  },
  {
    "name": "新北市立土城幼兒園清水分班",
    "address": "[236]新北市土城區清和里1鄰青雲路368號2、3樓",
    "location": { "lat": 24.9738389, "lng": 121.458606 }
  },
  {
    "name": "新北市土城區清水國民小學附設幼兒園",
    "address": "[236]新北市土城區清溪里36鄰金城路二段356號",
    "location": { "lat": 24.9848823, "lng": 121.4614252 }
  },
  {
    "name": "新北市立土城國民中學附設幼兒園",
    "address": "[236]新北市土城區永寧里4鄰永寧路18號",
    "location": { "lat": 24.9624884, "lng": 121.4302007 }
  },
  {
    "name": "新北市土城區頂埔國民小學附設幼兒園",
    "address": "[236]新北市土城區頂福里20鄰中央路四段205號",
    "location": { "lat": 24.9562302, "lng": 121.4144033 }
  },
  {
    "name": "新北市土城區廣福國民小學附設幼兒園",
    "address": "[236]新北市土城區廣福里18鄰學府路一段127號",
    "location": { "lat": 24.9869896, "lng": 121.454819 }
  },
  {
    "name": "新北市土城區安和國民小學附設幼兒園",
    "address": "[236]新北市土城區安和里16鄰延和路23號",
    "location": { "lat": 24.988886, "lng": 121.4650192 }
  },
  {
    "name": "新北市立土城幼兒園大頂埔分班",
    "address": "[236]新北市土城區頂福里17鄰中州路28巷30號3樓",
    "location": { "lat": 24.9580658, "lng": 121.4147093 }
  },
  {
    "name": "新北市立土城幼兒園",
    "address": "[236]新北市土城區中正里16鄰裕民路193之1號",
    "location": { "lat": 24.9843278, "lng": 121.4536666 }
  },
  {
    "name": "新北市蘆洲區忠義國民小學附設幼兒園",
    "address": "[247]新北市蘆洲區正義里3鄰光榮路99號",
    "location": { "lat": 25.0898139, "lng": 121.4635369 }
  },
  {
    "name": "新北市立蘆洲國民中學附設幼兒園",
    "address": "[247]新北市蘆洲區中原里5鄰中正路265號",
    "location": { "lat": 25.0875104, "lng": 121.4671138 }
  },
  {
    "name": "新北市蘆洲區仁愛國民小學附設幼兒園",
    "address": "[247]新北市蘆洲區水湳里15鄰民族路488號",
    "location": { "lat": 25.0912245, "lng": 121.4705266 }
  },
  {
    "name": "新北市蘆洲區鷺江國民小學附設幼兒園",
    "address": "[247]新北市蘆洲區鷺江里16鄰民族路7號",
    "location": { "lat": 25.085096, "lng": 121.4766525 }
  },
  {
    "name": "新北市蘆洲區蘆洲國民小學附設幼兒園",
    "address": "[247]新北市蘆洲區保和里15鄰中正路100號",
    "location": { "lat": 25.0844063, "lng": 121.4698633 }
  },
  {
    "name": "新北市立蘆洲幼兒園",
    "address": "[247]新北市蘆洲區永樂里3鄰永平街1號2樓",
    "location": { "lat": 25.0903409, "lng": 121.459313 }
  },
  {
    "name": "新北市蘆洲區成功國民小學附設幼兒園",
    "address": "[247]新北市蘆洲區成功里27鄰長安街311號",
    "location": { "lat": 25.0852222, "lng": 121.457196 }
  },
  {
    "name": "新北市五股區更寮國民小學附設幼兒園",
    "address": "[248]新北市五股區興珍里1鄰四維路2號",
    "location": { "lat": 25.0702858, "lng": 121.4673931 }
  },
  {
    "name": "新北市立五股幼兒園更新分班",
    "address": "[248]新北市五股區更寮里8鄰更洲路47號2樓",
    "location": { "lat": 25.0792639, "lng": 121.4571693 }
  },
  {
    "name": "新北市五股區成州國民小學附設幼兒園",
    "address": "[248]新北市五股區成州里10鄰成泰路三段493號",
    "location": { "lat": 25.099757, "lng": 121.450535 }
  },
  {
    "name": "新北市立五股幼兒園成州分班",
    "address": "[248]新北市五股區成州里22鄰西雲路225巷4號1樓",
    "location": { "lat": 25.097489, "lng": 121.448615 }
  },
  {
    "name": "新北市立五股幼兒園",
    "address": "[248]新北市五股區成功里22鄰西雲路165號2樓、3樓",
    "location": { "lat": 25.0946456, "lng": 121.4464505 }
  },
  {
    "name": "新北市立五股幼兒園陸一分班",
    "address": "[248]新北市五股區陸一里9鄰六合街70號1樓",
    "location": { "lat": 25.0893412, "lng": 121.4315338 }
  },
  {
    "name": "新北市五股區五股國民小學附設幼兒園",
    "address": "[248]新北市五股區五股里1鄰成泰路二段49號",
    "location": { "lat": 25.0826773, "lng": 121.4373766 }
  },
  {
    "name": "新北市五股區德音國民小學附設幼兒園",
    "address": "[248]新北市五股區水碓里25鄰明德路2號",
    "location": { "lat": 25.0713785, "lng": 121.4344931 }
  },
  {
    "name": "新北市立五股幼兒園德音分班",
    "address": "[248]新北市五股區德音里9鄰蓬萊路6巷45號1樓",
    "location": { "lat": 25.0803555, "lng": 121.4357511 }
  },
  {
    "name": "新北市立五股幼兒園水碓分班",
    "address": "[248]新北市五股區水碓里31鄰水碓二路1號2樓",
    "location": { "lat": 25.0719028, "lng": 121.4298787 }
  },
  {
    "name": "新北市泰山區泰山國民小學附設幼兒園",
    "address": "[243]新北市泰山區山腳里32鄰泰林路二段255號",
    "location": { "lat": 25.0614848, "lng": 121.4315562 }
  },
  {
    "name": "新北市立泰山幼兒園",
    "address": "[243]新北市泰山區同榮里27鄰公園路52號1樓及2樓",
    "location": { "lat": 25.0548692, "lng": 121.4283144 }
  },
  {
    "name": "新北市立泰山國民中學附設幼兒園",
    "address": "[243]新北市泰山區山腳里10鄰泰林路二段498號",
    "location": { "lat": 25.0639896, "lng": 121.4246015 }
  },
  {
    "name": "新北市立泰山幼兒園明志分班",
    "address": "[243]新北市泰山區明志里19鄰明志路二段426號3樓",
    "location": { "lat": 25.0438069, "lng": 121.4248264 }
  },
  {
    "name": "新北市泰山區同榮國民小學附設幼兒園",
    "address": "[243]新北市泰山區義學里2鄰公園路33號",
    "location": { "lat": 25.0546146, "lng": 121.4282031 }
  },
  {
    "name": "新北市立泰山幼兒園貴和分班",
    "address": "[243]新北市泰山區貴和里31鄰明志路三段365號2樓",
    "location": { "lat": 25.0345107, "lng": 121.4218094 }
  },
  {
    "name": "新北市泰山區明志國民小學附設幼兒園",
    "address": "[243]新北市泰山區泰友里14鄰新生路2號",
    "location": { "lat": 25.0452921, "lng": 121.4274495 }
  },
  {
    "name": "新北市立林口幼兒園",
    "address": "[244]新北市林口區東林里8鄰粉寮28-1號1樓、2樓",
    "location": { "lat": 25.080027, "lng": 121.399199 }
  },
  {
    "name": "新北市林口區林口國民小學附設幼兒園",
    "address": "[244]新北市林口區菁湖里4鄰林口路76號",
    "location": { "lat": 25.080762, "lng": 121.3896303 }
  },
  {
    "name": "新北市立林口幼兒園湖北分班",
    "address": "[244]新北市林口區湖北里10鄰後湖17-6號1樓",
    "location": { "lat": 25.0981875, "lng": 121.3876573 }
  },
  {
    "name": "新北市林口區頭湖國民小學附設幼兒園",
    "address": "[244]新北市林口區湖南里10鄰民權路101號",
    "location": { "lat": 25.0820692, "lng": 121.3728417 }
  },
  {
    "name": "新北市林口區南勢國民小學附設幼兒園",
    "address": "[244]新北市林口區南勢里1鄰南勢街215號",
    "location": { "lat": 25.0756366, "lng": 121.3584648 }
  },
  {
    "name": "新北市林口區嘉寶國民小學附設幼兒園",
    "address": "[244]新北市林口區嘉寶里1鄰嘉寶里22號",
    "location": { "lat": 25.108337, "lng": 121.339556 }
  },
  {
    "name": "新北市林口區瑞平國民小學附設幼兒園",
    "address": "[244]新北市林口區太平里8鄰後坑34之1號",
    "location": { "lat": 25.1228045, "lng": 121.3684577 }
  },
  {
    "name": "新北市林口區興福國民小學附設幼兒園",
    "address": "[244]新北市林口區下福里20鄰10之1號",
    "location": { "lat": 25.111835, "lng": 121.313041 }
  },
  {
    "name": "新北市林口區麗林國民小學附設幼兒園",
    "address": "[244]新北市林口區麗林里29鄰公園路46號",
    "location": { "lat": 25.0686085, "lng": 121.3682286 }
  },
  {
    "name": "新北市林口區麗園國民小學附設幼兒園",
    "address": "[244]新北市林口區麗園里17鄰忠孝路591號",
    "location": { "lat": 25.0684302, "lng": 121.3761869 }
  },
  {
    "name": "新北市立崇林國民中學附設幼兒園",
    "address": "[244]新北市林口區麗園里18鄰文化一路一段20號",
    "location": { "lat": 25.0684112, "lng": 121.3701667 }
  },
  {
    "name": "新北市立林口幼兒園忠孝分班",
    "address": "[244]新北市林口區麗園里17鄰忠孝路569巷17號1樓",
    "location": { "lat": 25.0691398, "lng": 121.3737886 }
  },
  {
    "name": "新北市深坑區深坑國民小學附設幼兒園",
    "address": "[222]新北市深坑區深坑里30鄰文化街45號",
    "location": { "lat": 25.0017788, "lng": 121.6171368 }
  },
  {
    "name": "新北市立深坑國民中學附設幼兒園",
    "address": "[222]新北市深坑區深坑里18鄰文化街41號",
    "location": { "lat": 25.00168, "lng": 121.618296 }
  },
  {
    "name": "新北市立深坑幼兒園",
    "address": "[222]新北市深坑區深坑里30鄰平埔街5巷1號",
    "location": { "lat": 25.0009833, "lng": 121.6158438 }
  },
  {
    "name": "新北市立深坑幼兒園土庫分班",
    "address": "[222]新北市深坑區土庫里17鄰北深路1段83巷8弄36號1樓",
    "location": { "lat": 25.0010126, "lng": 121.6109088 }
  },
  {
    "name": "新北市石碇區永定國民小學附設幼兒園",
    "address": "[223]新北市石碇區永定里8鄰蚯蚓坑20號",
    "location": { "lat": 25.008316, "lng": 121.683865 }
  },
  {
    "name": "新北市石碇區石碇國民小學附設幼兒園",
    "address": "[223]新北市石碇區石碇里6鄰石碇西街15號",
    "location": { "lat": 24.9906097, "lng": 121.6590142 }
  },
  {
    "name": "新北市石碇區石碇國民小學附設幼兒園豐林分班",
    "address": "[223]新北市石碇區豐林里2鄰楓子林32之1號1樓",
    "location": { "lat": 25.0098172, "lng": 121.6424762 }
  },
  {
    "name": "新北市坪林區坪林國民小學附設幼兒園",
    "address": "[232]新北市坪林區坪林里1鄰坪林街114號",
    "location": { "lat": 24.9356421, "lng": 121.7115702 }
  },
  {
    "name": "新北市立三芝幼兒園福成分班",
    "address": "[252]新北市三芝區埔頭里27鄰中山路一段14號",
    "location": { "lat": 25.2584465, "lng": 121.5005805 }
  },
  {
    "name": "新北市立坪林幼兒園",
    "address": "[232]新北市坪林區坪林里1鄰國中路2號",
    "location": { "lat": 24.9368106, "lng": 121.7127555 }
  },
  {
    "name": "新北市立三芝幼兒園",
    "address": "[252]新北市三芝區埔坪里13鄰民生街31號2樓",
    "location": { "lat": 25.2564934, "lng": 121.5037747 }
  },
  {
    "name": "新北市三芝區三芝國民小學附設幼兒園",
    "address": "[252]新北市三芝區埔頭里28鄰育英街22號",
    "location": { "lat": 25.2575921, "lng": 121.5015346 }
  },
  {
    "name": "新北市三芝區興華國民小學附設幼兒園",
    "address": "[252]新北市三芝區興華里1鄰5號",
    "location": { "lat": 25.204497, "lng": 121.501346 }
  },
  {
    "name": "新北市石門區石門國民小學附設幼兒園",
    "address": "[253]新北市石門區尖鹿里1鄰中央路9號",
    "location": { "lat": 25.2958026, "lng": 121.5684299 }
  },
  {
    "name": "新北市石門區老梅國民小學附設幼兒園",
    "address": "[253]新北市石門區老梅里6鄰老梅路10號",
    "location": { "lat": 25.2891537, "lng": 121.5451512 }
  },
  {
    "name": "新北市立石門幼兒園",
    "address": "[253]新北市石門區石門里1鄰中山路34號",
    "location": { "lat": 25.2900645, "lng": 121.5661808 }
  },
  {
    "name": "新北市立八里幼兒園龍源分班",
    "address": "[249]新北市八里區龍源里15鄰龍米路一段223號2樓",
    "location": { "lat": 25.1318786, "lng": 121.4514496 }
  },
  {
    "name": "新北市八里區大崁國民小學附設幼兒園",
    "address": "[249]新北市八里區大崁里13鄰忠八街2號",
    "location": { "lat": 25.1603115, "lng": 121.4192927 }
  },
  {
    "name": "新北市立石門幼兒園草里分班",
    "address": "[253]新北市石門區草里里4鄰阿里荖33之1號",
    "location": { "lat": 25.2802762, "lng": 121.6079606 }
  },
  {
    "name": "新北市立八里幼兒園大埤頂分班",
    "address": "[249]新北市八里區大崁里3鄰中山路1段95號1樓",
    "location": { "lat": 25.1571685, "lng": 121.4256183 }
  },
  {
    "name": "新北市八里區八里國民小學附設幼兒園",
    "address": "[249]新北市八里區舊城里7鄰中山路2段338號",
    "location": { "lat": 25.149226, "lng": 121.403048 }
  },
  {
    "name": "新北市立八里幼兒園",
    "address": "[249]新北市八里區舊城里18鄰舊城路19號2F",
    "location": { "lat": 25.147039, "lng": 121.3999966 }
  },
  {
    "name": "新北市平溪區菁桐國民小學附設幼兒園",
    "address": "[226]新北市平溪區菁桐里2鄰菁桐街45號",
    "location": { "lat": 25.0233555, "lng": 121.7267564 }
  },
  {
    "name": "新北市平溪區十分國民小學附設幼兒園",
    "address": "[226]新北市平溪區十分里6鄰十分街157號",
    "location": { "lat": 25.043489, "lng": 121.77765 }
  },
  {
    "name": "新北市平溪區平溪國民小學附設幼兒園",
    "address": "[226]新北市平溪區平溪里4鄰平溪街56號",
    "location": { "lat": 25.0269166, "lng": 121.7382232 }
  },
  {
    "name": "新北市雙溪區牡丹國民小學附設幼兒園",
    "address": "[227]新北市雙溪區三貂里11鄰政光路3號",
    "location": { "lat": 25.062108, "lng": 121.8517028 }
  },
  {
    "name": "新北市立雙溪幼兒園",
    "address": "[227]新北市雙溪區平林里13鄰梅竹蹊1巷4號",
    "location": { "lat": 25.036519, "lng": 121.860924 }
  },
  {
    "name": "新北市雙溪區上林國民小學附設幼兒園",
    "address": "[227]新北市雙溪區上林里11鄰內平林60號1樓",
    "location": { "lat": 25.03011, "lng": 121.829191 }
  },
  {
    "name": "新北市雙溪區雙溪國民小學附設幼兒園",
    "address": "[227]新北市雙溪區共和里2鄰東榮街54號",
    "location": { "lat": 25.0334837, "lng": 121.8666176 }
  },
  {
    "name": "新北市貢寮區貢寮國民小學附設幼兒園",
    "address": "[228]新北市貢寮區雙玉里10鄰學苑街7號",
    "location": { "lat": 25.0220718, "lng": 121.9154877 }
  },
  {
    "name": "新北市立貢寮幼兒園龍門分班",
    "address": "[228]新北市貢寮區龍門里2鄰龍門街60之1號",
    "location": { "lat": 25.026554, "lng": 121.932813 }
  },
  {
    "name": "新北市貢寮區福隆國民小學附設幼兒園",
    "address": "[228]新北市貢寮區福隆里5鄰東興街35號",
    "location": { "lat": 25.017466, "lng": 121.948094 }
  },
  {
    "name": "新北市立貢寮幼兒園",
    "address": "[228]新北市貢寮區仁里里13鄰仁和路106巷5號",
    "location": { "lat": 25.0515051, "lng": 121.9240339 }
  },
  {
    "name": "新北市立貢寮幼兒園澳底分班",
    "address": "[228]新北市貢寮區真理里6鄰新港街26巷21之2號",
    "location": { "lat": 25.0553184, "lng": 121.9268156 }
  },
  {
    "name": "新北市立貢寮幼兒園卯澳分班",
    "address": "[228]新北市貢寮區福連里7鄰福興街1號",
    "location": { "lat": 25.0121376, "lng": 121.9898513 }
  },
  {
    "name": "新北市貢寮區澳底國民小學附設幼兒園",
    "address": "[228]新北市貢寮區真理里4鄰延平街10號",
    "location": { "lat": 25.054924, "lng": 121.924534 }
  },
  {
    "name": "新北市貢寮區和美國民小學附設幼兒園",
    "address": "[228]新北市貢寮區和美里15鄰龍洞街1之9號",
    "location": { "lat": 25.1123675, "lng": 121.9195247 }
  },
  {
    "name": "新北市立金山幼兒園",
    "address": "[208]新北市金山區美田里2鄰中山路236號",
    "location": { "lat": 25.2233969, "lng": 121.6361446 }
  },
  {
    "name": "新北市金山區金山國民小學附設幼兒園",
    "address": "[208]新北市金山區美田里2鄰中山路234號",
    "location": { "lat": 25.2229554, "lng": 121.6365932 }
  },
  {
    "name": "新北市金山區三和國民小學附設幼兒園",
    "address": "[208]新北市金山區重和里11鄰六股林口38號",
    "location": { "lat": 25.2180578, "lng": 121.6025692 }
  },
  {
    "name": "新北市立金山幼兒園中正中華分班",
    "address": "[208]新北市金山區美田里25鄰中正路134號1、2樓",
    "location": { "lat": 25.2216032, "lng": 121.632136 }
  },
  {
    "name": "新北市金山區中角國民小學附設幼兒園",
    "address": "[208]新北市金山區萬壽里2鄰海興路49號",
    "location": { "lat": 25.239723, "lng": 121.630602 }
  },
  {
    "name": "新北市立萬里幼兒園",
    "address": "[207]新北市萬里區萬里里5鄰瑪鋉路221號2樓",
    "location": { "lat": 25.1798818, "lng": 121.6897359 }
  },
  {
    "name": "新北市萬里區萬里國民小學附設幼兒園",
    "address": "[207]新北市萬里區萬里里6鄰瑪鋉路18號",
    "location": { "lat": 25.1761066, "lng": 121.6881873 }
  },
  {
    "name": "新北市萬里區野柳國民小學附設幼兒園",
    "address": "[207]新北市萬里區野柳里5鄰港東路167號",
    "location": { "lat": 25.2063972, "lng": 121.6904658 }
  },
  {
    "name": "新北市金山區金美國民小學附設幼兒園",
    "address": "[208]新北市金山區金美里16鄰忠孝一路111號",
    "location": { "lat": 25.220878, "lng": 121.63677 }
  },
  {
    "name": "新北市萬里區大鵬國民小學附設幼兒園",
    "address": "[207]新北市萬里區大鵬里7鄰加投路14號",
    "location": { "lat": 25.2087789, "lng": 121.650965 }
  },
  {
    "name": "新北市萬里區大坪國民小學附設幼兒園",
    "address": "[207]新北市萬里區雙興里13鄰大坪路1號",
    "location": { "lat": 25.166888, "lng": 121.638569 }
  },
  {
    "name": "新北市立烏來國民中小學附設幼兒園",
    "address": "[233]新北市烏來區烏來里3鄰啦卡路5號",
    "location": { "lat": 24.857273, "lng": 121.555738 }
  },
  {
    "name": "新北市烏來區福山國民小學附設幼兒園",
    "address": "[233]新北市烏來區福山里2鄰李茂岸56號",
    "location": { "lat": 24.7622062, "lng": 121.5141615 }
  },
  {
    "name": "新北市私立悅淨幼兒園",
    "address": "[220]新北市板橋區流芳里9鄰東門街30之2號1樓之66、67、68、69",
    "location": { "lat": 25.0084991, "lng": 121.4580362 }
  },
  {
    "name": "新北市私立彬彬幼兒園",
    "address": "[220]新北市板橋區湳興里5鄰館前西路160巷2之1號1樓及2樓",
    "location": { "lat": 25.0086237, "lng": 121.4547174 }
  },
  {
    "name": "新北市私立力品幼兒園",
    "address": "[220]新北市板橋區新興里6鄰館前西路興義巷3號1樓及5號1樓",
    "location": { "lat": 25.0082082, "lng": 121.4549235 }
  },
  {
    "name": "新北市私立悅欣幼兒園",
    "address": "[220]新北市板橋區流芳里9鄰東門街30之2號1樓之60、61、62、63",
    "location": { "lat": 25.0084991, "lng": 121.4580362 }
  },
  {
    "name": "財團法人新北市大觀書社附設新北市私立大觀幼兒園",
    "address": "[220]新北市板橋區黃石里3鄰西門街5號",
    "location": { "lat": 25.0114422, "lng": 121.4558606 }
  },
  {
    "name": "新北市私立吉的堡南雅幼兒園",
    "address": "[220]新北市板橋區新興里7鄰南雅南路一段40號2樓、2樓之1及3樓",
    "location": { "lat": 25.006119, "lng": 121.4557867 }
  },
  {
    "name": "新北市私立幼祥幼兒園",
    "address": "[220]新北市板橋區中正里27鄰中正路360巷45、47、49號1樓",
    "location": { "lat": 25.0254104, "lng": 121.456552 }
  },
  {
    "name": "新北市私立葳肯幼兒園",
    "address": "[220]新北市板橋區社後里14鄰中正路213號2樓",
    "location": { "lat": 25.0176401, "lng": 121.4561194 }
  },
  {
    "name": "新北市私立忠山幼兒園",
    "address": "[220]新北市板橋區香社里13鄰中正路275巷62弄1、3、5號1樓",
    "location": { "lat": 25.0183811, "lng": 121.453061 }
  },
  {
    "name": "新北市私立育群幼兒園",
    "address": "[220]新北市板橋區金華里10鄰金華街10巷102號及10巷104號1樓",
    "location": { "lat": 25.0204205, "lng": 121.4587228 }
  },
  {
    "name": "新北市私立亞特幼兒園",
    "address": "[220]新北市板橋區國光里6鄰國光路53號1樓",
    "location": { "lat": 25.0243919, "lng": 121.4708735 }
  },
  {
    "name": "新北市私立育樂幼兒園",
    "address": "[220]新北市板橋區民權里7鄰民權路260巷1弄14、16號1樓",
    "location": { "lat": 25.0157587, "lng": 121.457947 }
  },
  {
    "name": "新北市私立寶貝世界幼兒園",
    "address": "[220]新北市板橋區港尾里10鄰中正路332號2樓",
    "location": { "lat": 25.0221832, "lng": 121.4545871 }
  },
  {
    "name": "新北市私立慈惠幼兒園",
    "address": "[220]新北市板橋區民權里18鄰民權路202巷22號1樓",
    "location": { "lat": 25.016651, "lng": 121.461078 }
  },
  {
    "name": "新北市私立立聖幼兒園",
    "address": "[220]新北市板橋區港德里1鄰中正路230號（1、2、3層）及中正路230號2樓",
    "location": { "lat": 25.0186906, "lng": 121.4558407 }
  },
  {
    "name": "新北市私立諾亞幼兒園",
    "address": "[220]新北市板橋區建國里1鄰中正路162號2樓及建國街1號1樓、夾層及2樓",
    "location": { "lat": 25.016951, "lng": 121.4568251 }
  },
  {
    "name": "新北市私立漢林堡幼兒園",
    "address": "[220]新北市板橋區漢生里10鄰光正街12-1號",
    "location": { "lat": 25.0171452, "lng": 121.4630678 }
  },
  {
    "name": "新北市私立和平幼兒園",
    "address": "[220]新北市板橋區建國里21鄰民權路202巷17弄70號",
    "location": { "lat": 25.0168006, "lng": 121.4581791 }
  },
  {
    "name": "新北市私立樂安幼兒園",
    "address": "[220]新北市板橋區公?里2鄰文化路一段293號2樓",
    "location": { "lat": 25.0188984, "lng": 121.4648927 }
  },
  {
    "name": "新北市私立光星幼兒園",
    "address": "[220]新北市板橋區新民里8鄰文化路一段188巷26號",
    "location": { "lat": 25.0192805, "lng": 121.466327 }
  },
  {
    "name": "新北市私立童心幼兒園",
    "address": "[220]新北市板橋區新民里8鄰文化路一段188巷30號1樓",
    "location": { "lat": 25.0191829, "lng": 121.466487 }
  },
  {
    "name": "新北市私立幸福幼兒園",
    "address": "[220]新北市板橋區幸福里4鄰幸福路32巷2弄2號1樓、4號1樓",
    "location": { "lat": 25.02064, "lng": 121.461766 }
  },
  {
    "name": "新北市私立晨暘幼兒園",
    "address": "[220]新北市板橋區介壽里13鄰文化路一段270巷3弄3、5、7、9號1、2樓",
    "location": { "lat": 25.0209399, "lng": 121.4682814 }
  },
  {
    "name": "新北市私立致理幼兒園",
    "address": "[220]新北市板橋區介壽里6鄰介壽街80號",
    "location": { "lat": 25.018654, "lng": 121.469728 }
  },
  {
    "name": "新北市私立大恩幼兒園",
    "address": "[220]新北市板橋區介壽里3鄰介壽街23號及25號1樓",
    "location": { "lat": 25.020142, "lng": 121.468148 }
  },
  {
    "name": "新北市私立皇佳幼兒園",
    "address": "[220]新北市板橋區幸福里16鄰英士路153號1樓及2樓",
    "location": { "lat": 25.0238564, "lng": 121.4596597 }
  },
  {
    "name": "新北市私立大同幼兒園",
    "address": "[220]新北市板橋區新埔里4鄰自由路26巷24號及26號1樓",
    "location": { "lat": 25.0223987, "lng": 121.4665404 }
  },
  {
    "name": "新北市私立江翠幼兒園",
    "address": "[220]新北市板橋區溪頭里3鄰宏國路78號及80號1樓",
    "location": { "lat": 25.0320437, "lng": 121.469565 }
  },
  {
    "name": "新北市私立三元幼兒園",
    "address": "[220]新北市板橋區聯翠里1鄰民生路三段10號3樓",
    "location": { "lat": 25.024427, "lng": 121.467825 }
  },
  {
    "name": "新北市私立雨農幼兒園",
    "address": "[220]新北市板橋區新翠里27鄰雨農路27巷2號2樓",
    "location": { "lat": 25.0238593, "lng": 121.4612791 }
  },
  {
    "name": "新北市私立雅森幼兒園",
    "address": "[220]新北市板橋區新翠里20鄰英士路39號2樓",
    "location": { "lat": 25.0248958, "lng": 121.46148 }
  },
  {
    "name": "新北市私立溫馨幼兒園",
    "address": "[220]新北市板橋區吉翠里16鄰裕民街128巷3號1樓及夾層、5號1樓及夾層",
    "location": { "lat": 25.0279677, "lng": 121.4586171 }
  },
  {
    "name": "新北市私立小豆芽四維幼兒園",
    "address": "[220]新北市板橋區明翠里15鄰四維路257號2樓",
    "location": { "lat": 25.0279341, "lng": 121.4634394 }
  },
  {
    "name": "新北市私立古典幼兒園",
    "address": "[220]新北市板橋區柏翠里16鄰雙十路三段12號2樓",
    "location": { "lat": 25.030573, "lng": 121.471789 }
  },
  {
    "name": "新北市私立喬心幼兒園",
    "address": "[220]新北市板橋區德翠里17鄰龍泉街55巷38弄2號2樓及3樓、55巷36號1樓及2樓",
    "location": { "lat": 25.0246458, "lng": 121.4577836 }
  },
  {
    "name": "新北市私立文聖幼兒園",
    "address": "[220]新北市板橋區柏翠里4鄰雙十路3段10巷1弄8號1樓",
    "location": { "lat": 25.0313328, "lng": 121.4720658 }
  },
  {
    "name": "新北市私立愛唯兒幼兒園",
    "address": "[220]新北市板橋區龍翠里3鄰大同街50巷18號1、2、3樓",
    "location": { "lat": 25.0268613, "lng": 121.4787602 }
  },
  {
    "name": "新北市私立山姆叔叔板橋幼兒園",
    "address": "[220]新北市板橋區松翠里2鄰文化路二段348號1樓、2樓及3樓",
    "location": { "lat": 25.0304531, "lng": 121.473069 }
  },
  {
    "name": "新北市私立育人幼兒園",
    "address": "[220]新北市板橋區華翠里4鄰莒光路114巷3號1樓",
    "location": { "lat": 25.0236592, "lng": 121.4725483 }
  },
  {
    "name": "新北市私立寶貝媽咪幼兒園",
    "address": "[220]新北市板橋區忠翠里22鄰莊敬路46號2樓之2",
    "location": { "lat": 25.0270707, "lng": 121.4729247 }
  },
  {
    "name": "新北市私立寶仁幼兒園",
    "address": "[220]新北市板橋區忠翠里25鄰文化路二段182巷1弄8號2樓、3弄9號1樓",
    "location": { "lat": 25.0276119, "lng": 121.4713268 }
  },
  {
    "name": "新北市私立悅嘉幼兒園",
    "address": "[220]新北市板橋區忠翠里20鄰雙十路二段149號2樓",
    "location": { "lat": 25.0280459, "lng": 121.474623 }
  },
  {
    "name": "新北市私立喬治亞幼兒園",
    "address": "[220]新北市板橋區華翠里10鄰莒光路135之1號1樓、135號1樓、137號1樓、139號1樓、135號2樓及137號2樓",
    "location": { "lat": 25.0241175, "lng": 121.4731281 }
  },
  {
    "name": "新北市私立艾法薇爾幼兒園",
    "address": "[220]新北市板橋區忠翠里21鄰雙十路二段85號1樓及87號1樓、87號2樓",
    "location": { "lat": 25.0270339, "lng": 121.475451 }
  },
  {
    "name": "新北市私立寶貝媽咪資優幼兒園",
    "address": "[220]新北市板橋區忠翠里22鄰莊敬路46號2樓之3",
    "location": { "lat": 25.0270707, "lng": 121.4729247 }
  },
  {
    "name": "新北市私立卡爾斯登幼兒園",
    "address": "[220]新北市板橋區忠翠里22鄰莊敬路42號1樓、2樓及3樓",
    "location": { "lat": 25.0275498, "lng": 121.4727992 }
  },
  {
    "name": "新北市私立若仁幼兒園",
    "address": "[220]新北市板橋區忠翠里22鄰莊敬路46號3樓",
    "location": { "lat": 25.0270707, "lng": 121.4729247 }
  },
  {
    "name": "新北市私立夏恩雙響幼兒園",
    "address": "[220]新北市板橋區忠翠里27鄰文化路二段182巷3弄50號1樓",
    "location": { "lat": 25.0287226, "lng": 121.472717 }
  },
  {
    "name": "新北市私立心世紀幼兒園",
    "address": "[220]新北市板橋區忠翠里24鄰雙十路二段213號3樓",
    "location": { "lat": 25.0289473, "lng": 121.4729906 }
  },
  {
    "name": "新北市私立康園幼兒園",
    "address": "[220]新北市板橋區嵐翠里10鄰文聖街89巷17號2樓、19號3樓",
    "location": { "lat": 25.0304305, "lng": 121.4781358 }
  },
  {
    "name": "新北市私立巧宇幼兒園",
    "address": "[220]新北市板橋區嵐翠里10鄰文聖街73號2樓",
    "location": { "lat": 25.030497, "lng": 121.4773079 }
  },
  {
    "name": "新北市私立板橋育安幼兒園",
    "address": "[220]新北市板橋區文翠里8鄰文化路二段548巷29號1樓及2樓",
    "location": { "lat": 25.0336712, "lng": 121.476978 }
  },
  {
    "name": "新北市私立發現小熊森林幼兒園",
    "address": "[220]新北市板橋區忠翠里25鄰文化路二段182巷1弄12號3樓之1",
    "location": { "lat": 25.0277451, "lng": 121.4714619 }
  },
  {
    "name": "新北市私立今仁幼兒園",
    "address": "[220]新北市板橋區振興里8鄰翠華街4巷7號、9號",
    "location": { "lat": 25.0238014, "lng": 121.4805879 }
  },
  {
    "name": "新北市私立板橋大華幼兒園",
    "address": "[220]新北市板橋區港嘴里16鄰三民路一段1巷24號、26號及32號",
    "location": { "lat": 25.0243452, "lng": 121.4799472 }
  },
  {
    "name": "新北市私立正隆幼兒園",
    "address": "[220]新北市板橋區福壽里4鄰三民路二段204之17號及204之18號1樓",
    "location": { "lat": 25.0122783, "lng": 121.4787705 }
  },
  {
    "name": "新北市私立國儷幼兒園",
    "address": "[220]新北市板橋區福壽里10鄰三民路二段245巷62號1樓、2樓及3樓",
    "location": { "lat": 25.0124597, "lng": 121.4814682 }
  },
  {
    "name": "陽光森林文教股份有限公司臺北縣分公司附設新北市私立陽光小子幼兒園",
    "address": "[220]新北市板橋區福壽里11鄰三民路二段215號1、2樓",
    "location": { "lat": 25.0128733, "lng": 121.4791441 }
  },
  {
    "name": "新北市私立愛森堡幼兒園",
    "address": "[220]新北市板橋區玉光里9鄰永豐街59號1樓、2樓及3樓",
    "location": { "lat": 25.0183262, "lng": 121.4737712 }
  },
  {
    "name": "新北市私立全能愛彌兒板橋幼兒園",
    "address": "[220]新北市板橋區玉光里21鄰中山路二段89巷6弄9號1樓及2樓、永豐街43號3樓",
    "location": { "lat": 25.0172432, "lng": 121.4741472 }
  },
  {
    "name": "新北市私立遠東幼兒園",
    "address": "[220]新北市板橋區光仁里13鄰成功路33號1樓",
    "location": { "lat": 25.017524, "lng": 121.475112 }
  },
  {
    "name": "新北市私立小康幼兒園",
    "address": "[220]新北市板橋區海山里7鄰長安街138巷7弄36、38號1、2樓",
    "location": { "lat": 25.0088594, "lng": 121.4738967 }
  },
  {
    "name": "新北市私立蘇格拉底幼兒園",
    "address": "[220]新北市板橋區埤墘里2鄰莒光路211號2、3樓",
    "location": { "lat": 25.0231157, "lng": 121.474229 }
  },
  {
    "name": "新北市私立幼菁幼兒園",
    "address": "[220]新北市板橋區埤墘里3鄰莒光路196巷28號及180巷40號",
    "location": { "lat": 25.0226217, "lng": 121.4729233 }
  },
  {
    "name": "新北市私立喬一幼兒園",
    "address": "[220]新北市板橋區雙玉里1鄰三民路一段120號2樓、122號2樓及126號2樓",
    "location": { "lat": 25.0207696, "lng": 121.4790749 }
  },
  {
    "name": "新北市私立惠琪幼兒園",
    "address": "[220]新北市板橋區永安里10鄰萬板路190號1樓及1樓之1",
    "location": { "lat": 25.023815, "lng": 121.47627 }
  },
  {
    "name": "新北市私立雙成幼兒園",
    "address": "[220]新北市板橋區永安里7鄰縣民大道三段133巷22號1樓",
    "location": { "lat": 25.0238316, "lng": 121.4775481 }
  },
  {
    "name": "新北市私立慧晟幼兒園",
    "address": "[220]新北市板橋區廣新里14鄰永豐街123號1樓、123之1號2樓及123之2號3樓",
    "location": { "lat": 25.0197299, "lng": 121.474535 }
  },
  {
    "name": "財團法人台北市中華基督教青年會附設新北市私立板新幼兒園",
    "address": "[220]新北市板橋區長安里2鄰板新路27號1、2、3樓",
    "location": { "lat": 25.012925, "lng": 121.4746859 }
  },
  {
    "name": "新北市私立漢東幼兒園",
    "address": "[220]新北市板橋區長安里7鄰漢生東路175號1樓及2樓",
    "location": { "lat": 25.0121349, "lng": 121.4695765 }
  },
  {
    "name": "新北市私立文堡幼兒園",
    "address": "[220]新北市板橋區廣新里18鄰永豐街122號1樓、120巷1號1樓、120巷3號1樓及120巷5號1樓、2樓、3樓",
    "location": { "lat": 25.0208804, "lng": 121.4765152 }
  },
  {
    "name": "新北市私立卡爾威特幼兒園",
    "address": "[220]新北市板橋區長安里14鄰板新路101號2樓",
    "location": { "lat": 25.0138725, "lng": 121.4725957 }
  },
  {
    "name": "新北市私立福音幼兒園",
    "address": "[220]新北市板橋區福丘里4鄰民族路8號2樓",
    "location": { "lat": 25.009603, "lng": 121.4616767 }
  },
  {
    "name": "新北市私立科見板橋幼兒園",
    "address": "[220]新北市板橋區福丘里7鄰中山路一段69號2樓及3樓",
    "location": { "lat": 25.0099167, "lng": 121.4612106 }
  },
  {
    "name": "財團法人台北基督教女青年會附設新北市私立員工實驗幼兒園（新北市政府委託辦理）",
    "address": "[220]新北市板橋區福丘里13鄰中山路一段161號2樓西側",
    "location": { "lat": 25.0122763, "lng": 121.4655369 }
  },
  {
    "name": "新北市私立立信幼兒園",
    "address": "[220]新北市板橋區福祿里12鄰國泰街75巷49、51、53號1樓",
    "location": { "lat": 25.0061644, "lng": 121.4676059 }
  },
  {
    "name": "新北市私立幼暉幼兒園",
    "address": "[220]新北市板橋區民族里20鄰民族路289巷2號1樓",
    "location": { "lat": 25.00698, "lng": 121.47174 }
  },
  {
    "name": "新北市私立生活村幼兒園",
    "address": "[220]新北市板橋區民族里16鄰漢生東路350號地下1層、2樓及3樓",
    "location": { "lat": 25.0073916, "lng": 121.4719578 }
  },
  {
    "name": "新北市私立忠孝幼兒園",
    "address": "[220]新北市板橋區福德里19鄰忠孝路忠義巷19弄9、11號",
    "location": { "lat": 25.0041993, "lng": 121.4664239 }
  },
  {
    "name": "新北市私立天愛幼兒園",
    "address": "[220]新北市板橋區福德里4鄰光明街120號1樓及2樓",
    "location": { "lat": 25.0029831, "lng": 121.4633536 }
  },
  {
    "name": "新北市私立喬幼光明幼兒園",
    "address": "[220]新北市板橋區福星里8鄰光明街68號1樓、68之1號2樓",
    "location": { "lat": 25.0026534, "lng": 121.461497 }
  },
  {
    "name": "新北市私立喬幼幼兒園",
    "address": "[220]新北市板橋區福星里8鄰光明街72號、72之1號、74號、74之1號",
    "location": { "lat": 25.0026699, "lng": 121.461582 }
  },
  {
    "name": "新北市私立道安幼兒園",
    "address": "[220]新北市板橋區鄉雲里14鄰大明街15巷15、17、19號1樓及15巷15號2樓、15巷17之1號2樓、15巷19之1號2樓",
    "location": { "lat": 25.002253, "lng": 121.4583953 }
  },
  {
    "name": "新北市私立鹿兒堡幼兒園",
    "address": "[220]新北市板橋區廣德里2鄰重慶路269巷18號1樓",
    "location": { "lat": 24.998952, "lng": 121.464554 }
  },
  {
    "name": "新北市私立育太幼兒園",
    "address": "[220]新北市板橋區廣德里1鄰重慶路223巷7號1樓、2樓及3樓",
    "location": { "lat": 25.001354, "lng": 121.4632547 }
  },
  {
    "name": "新北市私立班尼迪克幼兒園",
    "address": "[220]新北市板橋區廣德里3鄰重慶路245巷15號1樓、2樓及3樓",
    "location": { "lat": 25.0009065, "lng": 121.4639891 }
  },
  {
    "name": "新北市私立大業幼兒園",
    "address": "[220]新北市板橋區大豐里9鄰重慶路278巷17號1樓",
    "location": { "lat": 24.9995611, "lng": 121.4622046 }
  },
  {
    "name": "新北市私立仕揚幼兒園",
    "address": "[220]新北市板橋區廣德里1鄰重慶路207號1樓及2樓",
    "location": { "lat": 25.0016054, "lng": 121.4630047 }
  },
  {
    "name": "新北市私立大自然幼兒園",
    "address": "[220]新北市板橋區大豐里12鄰忠孝路48巷2弄8號1樓",
    "location": { "lat": 25.0009924, "lng": 121.4603056 }
  },
  {
    "name": "新北市私立捧馨園幼兒園",
    "address": "[220]新北市板橋區重慶里4鄰國慶路126巷1號及3號1樓",
    "location": { "lat": 24.9957059, "lng": 121.460908 }
  },
  {
    "name": "新北市私立薇吉妮亞幼兒園",
    "address": "[220]新北市板橋區廣福里5鄰和平路6巷1號1、2樓",
    "location": { "lat": 24.993683, "lng": 121.458725 }
  },
  {
    "name": "新北市私立培揚幼兒園",
    "address": "[220]新北市板橋區華興里14鄰貴興路62、64號1樓",
    "location": { "lat": 25.0041212, "lng": 121.4575068 }
  },
  {
    "name": "新北市私立田園幼兒園",
    "address": "[220]新北市板橋區廣福里4鄰信義路279巷19-2號、19-3號",
    "location": { "lat": 24.9900705, "lng": 121.464235 }
  },
  {
    "name": "新北市私立童苑幼兒園",
    "address": "[220]新北市板橋區華東里29鄰南雅南路二段144巷57號1、2樓",
    "location": { "lat": 24.9951403, "lng": 121.4501926 }
  },
  {
    "name": "新北市私立聖路易幼兒園",
    "address": "[220]新北市板橋區華東里6鄰南雅南路二段156號1樓、144巷5號1樓、144巷7號1樓、144巷3號2樓之3、144巷3號2樓之4",
    "location": { "lat": 24.9956181, "lng": 121.4514428 }
  },
  {
    "name": "新北市私立小奈米幼兒園",
    "address": "[220]新北市板橋區華德里12鄰四川路2段23之1、23之2、25之1、25之2號2、3樓",
    "location": { "lat": 24.994373, "lng": 121.452082 }
  },
  {
    "name": "新北市私立台大幼兒園",
    "address": "[220]新北市板橋區華中里5鄰僑中一街80巷7弄1號1樓、1之1號2樓",
    "location": { "lat": 25.0127479, "lng": 121.447659 }
  },
  {
    "name": "新北市私立興名陽幼兒園",
    "address": "[220]新北市板橋區僑中里2鄰僑中二街102巷37號1樓及2樓",
    "location": { "lat": 25.0083397, "lng": 121.4446986 }
  },
  {
    "name": "新北市私立大安幼兒園",
    "address": "[220]新北市板橋區大安里12鄰大觀路二段59巷29號1樓",
    "location": { "lat": 25.0026498, "lng": 121.447621 }
  },
  {
    "name": "新北市私立天藍幼兒園",
    "address": "[220]新北市板橋區華中里12鄰僑中一街124巷3弄16號1樓",
    "location": { "lat": 25.012637, "lng": 121.4444869 }
  },
  {
    "name": "新北市私立恬馨幼兒園",
    "address": "[220]新北市板橋區崑崙里13鄰篤行路二段67巷5號1樓、77巷3號1樓及2樓",
    "location": { "lat": 24.992198, "lng": 121.432196 }
  },
  {
    "name": "新北市私立吉智幼兒園",
    "address": "[220]新北市板橋區崑崙里3鄰存德街20號1樓、2樓、3樓、存德街20之1號1樓及2樓",
    "location": { "lat": 24.9917845, "lng": 121.4297453 }
  },
  {
    "name": "新北市私立板橋天翔幼兒園",
    "address": "[220]新北市板橋區香雅里11鄰南雅西路二段253之1號1樓及2樓",
    "location": { "lat": 25.014742, "lng": 121.451712 }
  },
  {
    "name": "新北市私立幼華幼兒園",
    "address": "[220]新北市板橋區香雅里4鄰大仁街68號",
    "location": { "lat": 25.0165287, "lng": 121.4543964 }
  },
  {
    "name": "新北市私立禾稼幼兒園",
    "address": "[220]新北市板橋區溪洲里2鄰溪崑二街98號",
    "location": { "lat": 24.9893589, "lng": 121.4279 }
  },
  {
    "name": "新北市私立莒光幼兒園",
    "address": "[220]新北市板橋區文化里15鄰松江街60巷9號及11號1樓",
    "location": { "lat": 25.0276236, "lng": 121.4693738 }
  },
  {
    "name": "新北市私立緹家寶幼兒園",
    "address": "[220]新北市板橋區新海里2鄰新海路416號1、2、3樓",
    "location": { "lat": 25.0273452, "lng": 121.4584405 }
  },
  {
    "name": "新北市私立嘉穎幼兒園",
    "address": "[220]新北市板橋區莒光里8鄰文化路二段92號1樓、92號2樓、92之1號1樓",
    "location": { "lat": 25.025824, "lng": 121.47007 }
  },
  {
    "name": "新北市私立嘉盛幼兒園",
    "address": "[220]新北市板橋區後埔里11鄰實踐路76之1號2樓、76之2號3樓",
    "location": { "lat": 25.005482, "lng": 121.463844 }
  },
  {
    "name": "新北市私立優兒幼兒園",
    "address": "[220]新北市板橋區後埔里7鄰成都街103號1樓",
    "location": { "lat": 25.0054062, "lng": 121.4634466 }
  },
  {
    "name": "新北市私立精緻之家幼兒園",
    "address": "[220]新北市板橋區後埔里5鄰重慶路91巷12號及14號1樓、2樓",
    "location": { "lat": 25.0061459, "lng": 121.4625163 }
  },
  {
    "name": "新北市私立菩提幼兒園",
    "address": "[220]新北市板橋區堂春里17鄰金門街251號1樓及2樓",
    "location": { "lat": 24.989008, "lng": 121.431999 }
  },
  {
    "name": "新北市私立吉的堡皇家貴族幼兒園",
    "address": "[220]新北市板橋區堂春里19鄰金門街215巷10號、14號",
    "location": { "lat": 24.9895749, "lng": 121.432991 }
  },
  {
    "name": "新北市私立漂亮寶貝幼兒園",
    "address": "[220]新北市板橋區成和里16鄰金門街215巷21號、25號及29號",
    "location": { "lat": 24.990159, "lng": 121.433119 }
  },
  {
    "name": "新北市私立智翔幼兒園",
    "address": "[220]新北市板橋區陽明里4鄰陽明街134號及136號1樓、2樓",
    "location": { "lat": 25.0239684, "lng": 121.4636295 }
  },
  {
    "name": "新北市私立靜立幼兒園",
    "address": "[220]新北市板橋區朝陽里1鄰四維路289巷38號、40號及42號",
    "location": { "lat": 25.0282451, "lng": 121.4611685 }
  },
  {
    "name": "新北市私立愛唯揚幼兒園",
    "address": "[220]新北市板橋區文聖里12鄰大同街97號1、2、3樓",
    "location": { "lat": 25.0286562, "lng": 121.4802122 }
  },
  {
    "name": "新北市私立圓心坊幼兒園",
    "address": "[220]新北市板橋區文聖里16鄰大同街57號1樓",
    "location": { "lat": 25.027887, "lng": 121.4788986 }
  },
  {
    "name": "新北市私立凱思莉幼兒園",
    "address": "[220]新北市板橋區文聖里8鄰文聖街137號1樓、夾層、b1",
    "location": { "lat": 25.0285241, "lng": 121.4783408 }
  },
  {
    "name": "新北市私立禮仁幼兒園",
    "address": "[220]新北市板橋區文聖里16鄰大同街61號1樓及63號1樓",
    "location": { "lat": 25.027968, "lng": 121.4790306 }
  },
  {
    "name": "新北市私立心耶魯幼兒園",
    "address": "[220]新北市板橋區文聖里15鄰文聖街149巷6號1樓",
    "location": { "lat": 25.0281019, "lng": 121.4789321 }
  },
  {
    "name": "新北市私立大榮幼兒園",
    "address": "[220]新北市板橋區東安里2鄰長安街331巷77、79號1、2樓",
    "location": { "lat": 25.0128063, "lng": 121.4724026 }
  },
  {
    "name": "新北市私立省思幼兒園",
    "address": "[220]新北市板橋區溪福里33鄰篤行路三段玉平巷101號1樓",
    "location": { "lat": 24.9850595, "lng": 121.4278802 }
  },
  {
    "name": "新北市私立藍天幼兒園",
    "address": "[220]新北市板橋區溪福里39鄰金門街369巷57弄21號及23號1樓",
    "location": { "lat": 24.984018, "lng": 121.429846 }
  },
  {
    "name": "新北市私立欣勵德幼兒園",
    "address": "[220]新北市板橋區溪福里5鄰篤行路二段161巷18號1樓",
    "location": { "lat": 24.9874329, "lng": 121.4299182 }
  },
  {
    "name": "新北市私立育林幼兒園",
    "address": "[241]新北市三重區二重里8鄰頂崁街187巷4號、6號1樓",
    "location": { "lat": 25.066566, "lng": 121.477797 }
  },
  {
    "name": "新北市私立永錡板橋幼兒園",
    "address": "[220]新北市板橋區溪福里34鄰金門街358巷14號1樓、358巷16號1樓及2樓、372巷32號1樓及2樓、372巷34號1樓及2樓",
    "location": { "lat": 24.9846729, "lng": 121.427508 }
  },
  {
    "name": "新北市私立新二重幼兒園",
    "address": "[241]新北市三重區二重里1鄰忠孝路三段93巷6號2樓",
    "location": { "lat": 25.064685, "lng": 121.479154 }
  },
  {
    "name": "新北市私立勁寶兒喜星園幼兒園",
    "address": "[241]新北市三重區成功里19鄰成功路28號1,2樓",
    "location": { "lat": 25.0503065, "lng": 121.4896525 }
  },
  {
    "name": "新北市私立喜星園幼兒園",
    "address": "[241]新北市三重區成功里19鄰成功路22號2樓之1",
    "location": { "lat": 25.050176, "lng": 121.4898673 }
  },
  {
    "name": "新北市私立長頸鹿吉凱幼兒園",
    "address": "[241]新北市三重區谷王里1鄰興德路100號1~2樓",
    "location": { "lat": 25.0531102, "lng": 121.4726208 }
  },
  {
    "name": "新北市私立全能愛彌兒幼兒園",
    "address": "[241]新北市三重區福祉里8鄰集美街121號1樓及2樓、119號2樓、成功路73巷35號2樓",
    "location": { "lat": 25.052757, "lng": 121.490455 }
  },
  {
    "name": "新北市私立英群幼兒園",
    "address": "[241]新北市三重區福祉里18鄰捷運路2號3樓",
    "location": { "lat": 25.0561449, "lng": 121.4852424 }
  },
  {
    "name": "新北市私立益智幼兒園",
    "address": "[241]新北市三重區福祉里1鄰集美街5號、7號2樓",
    "location": { "lat": 25.056505, "lng": 121.4874103 }
  },
  {
    "name": "新北市私立吉的堡英群幼兒園",
    "address": "[241]新北市三重區福祉里18鄰捷運路2號1、2樓",
    "location": { "lat": 25.0561449, "lng": 121.4852424 }
  },
  {
    "name": "新北市私立吉德幼兒園",
    "address": "[241]新北市三重區福民里11鄰新興路30號及32號1樓、2樓",
    "location": { "lat": 25.0533055, "lng": 121.4918607 }
  },
  {
    "name": "新北市私立探索幼兒園",
    "address": "[241]新北市三重區過田里26鄰重新路四段57號1樓",
    "location": { "lat": 25.0574869, "lng": 121.487692 }
  },
  {
    "name": "新北市私立大全幼兒園",
    "address": "[241]新北市三重區重明里17鄰重陽路一段26巷37號、39號1樓",
    "location": { "lat": 25.0573568, "lng": 121.4850668 }
  },
  {
    "name": "新北市私立華納幼兒園",
    "address": "[241]新北市三重區光田里25鄰中山路108號1、2樓",
    "location": { "lat": 25.080707, "lng": 121.47928 }
  },
  {
    "name": "新北市私立智仁幼兒園",
    "address": "[241]新北市三重區田心里27鄰洛陽街53號1樓",
    "location": { "lat": 25.063332, "lng": 121.481585 }
  },
  {
    "name": "新北市私立象寶園幼兒園",
    "address": "[241]新北市三重區田中里5鄰忠孝路三段40巷59號1,2,3樓",
    "location": { "lat": 25.0655427, "lng": 121.4830699 }
  },
  {
    "name": "新北市私立重愛幼兒園",
    "address": "[241]新北市三重區田中里10鄰忠孝路三段40巷1之1號2樓",
    "location": { "lat": 25.0655309, "lng": 121.4830239 }
  },
  {
    "name": "新北市私立茱莉亞園幼兒園",
    "address": "[241]新北市三重區田中里4鄰三民路175巷25號1-2樓、27號1-3樓、重陽路2段52巷83弄4號1樓、6號1-3樓",
    "location": { "lat": 25.0651798, "lng": 121.4847595 }
  },
  {
    "name": "新北市私立來來幼兒園",
    "address": "[241]新北市三重區田安里4鄰新北大道一段100巷11號1、2樓，13號1樓，15號1樓，17號2、3樓",
    "location": { "lat": 25.0620615, "lng": 121.4854759 }
  },
  {
    "name": "新北市私立天鵝園幼兒園",
    "address": "[241]新北市三重區三民里5鄰中正北路118巷3號1樓",
    "location": { "lat": 25.0650169, "lng": 121.485204 }
  },
  {
    "name": "新北市私立學仕幼兒園",
    "address": "[241]新北市三重區光明里13鄰重新路三段202、204號2樓、3樓",
    "location": { "lat": 25.058566, "lng": 121.490193 }
  },
  {
    "name": "財團法人天主教會台北教區附設新北市私立母心幼兒園",
    "address": "[241]新北市三重區大園里5鄰大同北路115巷3號1樓",
    "location": { "lat": 25.0645179, "lng": 121.494098 }
  },
  {
    "name": "新北市私立子禕天地幼兒園",
    "address": "[241]新北市三重區忠孝里5鄰光興街2號1、2樓",
    "location": { "lat": 25.0598319, "lng": 121.4981 }
  },
  {
    "name": "新北市私立艾美樂幼兒園",
    "address": "[241]新北市三重區光明里28鄰集美街112巷9號1樓、2樓、11號1樓",
    "location": { "lat": 25.053843, "lng": 121.489374 }
  },
  {
    "name": "新北市私立重新幼兒園",
    "address": "[241]新北市三重區文化里14鄰重新路二段21號2樓",
    "location": { "lat": 25.0624587, "lng": 121.4981479 }
  },
  {
    "name": "新北市私立上綸幼兒園",
    "address": "[241]新北市三重區忠孝里19鄰正義南路105巷13號1樓",
    "location": { "lat": 25.0592867, "lng": 121.4978112 }
  },
  {
    "name": "新北市私立徠安幼兒園",
    "address": "[241]新北市三重區光明里13鄰重安街12號1、2樓",
    "location": { "lat": 25.0583539, "lng": 121.4902847 }
  },
  {
    "name": "新北市私立鼎群幼兒園",
    "address": "[241]新北市三重區光華里12鄰福德北路50號1樓",
    "location": { "lat": 25.065665, "lng": 121.501904 }
  },
  {
    "name": "新北市私立班博士幼兒園",
    "address": "[241]新北市三重區大德里10鄰三和路1段48號1、2樓、50號1、2樓",
    "location": { "lat": 25.0665091, "lng": 121.5016896 }
  },
  {
    "name": "新北市私立艾力克幼兒園",
    "address": "[241]新北市三重區長元里6鄰三和路2段37號3樓",
    "location": { "lat": 25.0674478, "lng": 121.5009202 }
  },
  {
    "name": "新北市私立華兒園精緻幼兒園",
    "address": "[241]新北市三重區長泰里17鄰三和路二段75號2樓",
    "location": { "lat": 25.068247, "lng": 121.500315 }
  },
  {
    "name": "新北市私立甜甜幼兒園",
    "address": "[241]新北市三重區奕壽里6鄰三和路三段83巷9號1樓、2樓",
    "location": { "lat": 25.072064, "lng": 121.494439 }
  },
  {
    "name": "新北市私立三重幼兒園",
    "address": "[241]新北市三重區三安里11鄰三和路三段16巷2、4、6、8號1樓",
    "location": { "lat": 25.070108, "lng": 121.4964901 }
  },
  {
    "name": "新北市私立丹力幼兒園",
    "address": "[241]新北市三重區幸福里32鄰重陽路3段154號1樓、152號2樓",
    "location": { "lat": 25.067687, "lng": 121.48956 }
  },
  {
    "name": "新北市私立吉的堡英資幼兒園",
    "address": "[241]新北市三重區六合里1鄰重陽路4段24號、26號、28號1~3樓",
    "location": { "lat": 25.069517, "lng": 121.490945 }
  },
  {
    "name": "新北市私立彩虹城堡幼兒園",
    "address": "[241]新北市三重區六合里9鄰自強路2段47巷12號1樓",
    "location": { "lat": 25.0699936, "lng": 121.4893845 }
  },
  {
    "name": "新北市私立三重忠孝幼兒園",
    "address": "[241]新北市三重區六福里10鄰中正北路145巷6弄1號",
    "location": { "lat": 25.0678759, "lng": 121.483712 }
  },
  {
    "name": "新北市私立東光幼兒園",
    "address": "[241]新北市三重區承德里16鄰仁壽街200號",
    "location": { "lat": 25.0748609, "lng": 121.5008734 }
  },
  {
    "name": "新北市私立兒童天地幼兒園",
    "address": "[241]新北市三重區永福里6鄰力行路2段162巷3號1、2樓",
    "location": { "lat": 25.0767196, "lng": 121.4829234 }
  },
  {
    "name": "新北市私立新永福幼兒園",
    "address": "[241]新北市三重區永福里11鄰力行路2段136巷23弄20號2樓及22、24、26號1、2樓",
    "location": { "lat": 25.0760379, "lng": 121.4811336 }
  },
  {
    "name": "新北市私立安尼爾幼兒園",
    "address": "[241]新北市三重區溪美里22鄰仁政街111、113號1樓",
    "location": { "lat": 25.078624, "lng": 121.49179 }
  },
  {
    "name": "新北市私立幼苗國際幼兒園",
    "address": "[241]新北市三重區培德里19鄰中正北路165巷2號1樓,2樓,3樓",
    "location": { "lat": 25.0713496, "lng": 121.4792868 }
  },
  {
    "name": "新北市私立蘋果樹仁政幼兒園",
    "address": "[241]新北市三重區溪美里5鄰仁政街76巷6、8、10、12號各1樓及6號2樓、12號2樓",
    "location": { "lat": 25.0774342, "lng": 121.4922854 }
  },
  {
    "name": "新北市私立啟文幼兒園",
    "address": "[241]新北市三重區福隆里18鄰溪尾街106號1,2,3樓",
    "location": { "lat": 25.0788468, "lng": 121.4895442 }
  },
  {
    "name": "新北市私立新欣欣幼兒園",
    "address": "[241]新北市三重區慈化里13鄰分子尾街111號1、2樓",
    "location": { "lat": 25.083075, "lng": 121.488617 }
  },
  {
    "name": "新北市私立碧華幼兒園",
    "address": "[241]新北市三重區慈祐里11鄰分子尾街32號1樓",
    "location": { "lat": 25.0810157, "lng": 121.4894525 }
  },
  {
    "name": "新北市私立新學林幼兒園",
    "address": "[241]新北市三重區五華里3鄰仁義街307號1、2樓",
    "location": { "lat": 25.0840213, "lng": 121.4956131 }
  },
  {
    "name": "新北市私立藤井樹幼兒園",
    "address": "[241]新北市三重區慈祐里25鄰五華街122巷3號(門牌整編含5號)1樓",
    "location": { "lat": 25.0832147, "lng": 121.491757 }
  },
  {
    "name": "新北市私立惠文幼兒園",
    "address": "[241]新北市三重區富貴里18鄰五華街149號1樓",
    "location": { "lat": 25.084712, "lng": 121.4907686 }
  },
  {
    "name": "新北市私立惠文兒童領袖幼兒園",
    "address": "[241]新北市三重區富貴里24鄰五華街207號1、2、3樓",
    "location": { "lat": 25.0857993, "lng": 121.4898158 }
  },
  {
    "name": "新北市私立威妮斯特堡幼兒園",
    "address": "[241]新北市三重區富貴里22鄰五華街161號1、2樓",
    "location": { "lat": 25.0848921, "lng": 121.4905672 }
  },
  {
    "name": "新北市私立邦仁幼兒園",
    "address": "[241]新北市三重區碧華里10鄰溪尾街328號1、2樓",
    "location": { "lat": 25.0849191, "lng": 121.4880288 }
  },
  {
    "name": "新北市私立肯妮斯幼兒園",
    "address": "[241]新北市三重區碧華里14鄰三信路7號1、2樓及9號2樓",
    "location": { "lat": 25.086313, "lng": 121.488404 }
  },
  {
    "name": "新北市私立宜德幼兒園",
    "address": "[241]新北市三重區富福里2鄰仁愛街445巷35、37、39、41號1樓",
    "location": { "lat": 25.082344, "lng": 121.489855 }
  },
  {
    "name": "新北市私立哈佛園幼兒園",
    "address": "[241]新北市三重區永豐里16鄰永福街179巷6號1，2樓，3樓",
    "location": { "lat": 25.0748333, "lng": 121.478869 }
  },
  {
    "name": "新北市私立喬大幼兒園",
    "address": "[241]新北市三重區立德里14鄰力行路1段179巷10號1樓、2樓",
    "location": { "lat": 25.0700759, "lng": 121.48484 }
  },
  {
    "name": "新北市私立宥寶幼兒園",
    "address": "[241]新北市三重區永豐里9鄰下竹圍街93巷1、3號1樓",
    "location": { "lat": 25.074595, "lng": 121.481203 }
  },
  {
    "name": "新北市私立強森園幼兒園",
    "address": "[241]新北市三重區立德里19鄰三張街149巷16號1,2樓",
    "location": { "lat": 25.0701883, "lng": 121.4864885 }
  },
  {
    "name": "新北市私立三和幼兒園",
    "address": "[241]新北市三重區福樂里8鄰三和路4段123號1、2、3樓",
    "location": { "lat": 25.077779, "lng": 121.484986 }
  },
  {
    "name": "新北市私立邦喬妮幼兒園",
    "address": "[241]新北市三重區五順里23鄰五華街21巷3號1樓,5樓1樓",
    "location": { "lat": 25.080655, "lng": 121.4951035 }
  },
  {
    "name": "新北市私立仁慈幼兒園",
    "address": "[241]新北市三重區五順里25鄰五華街21巷39號1,2樓",
    "location": { "lat": 25.0814642, "lng": 121.4964329 }
  },
  {
    "name": "新北市私立復國幼兒園",
    "address": "[241]新北市三重區五順里30鄰仁義街211巷3、5號",
    "location": { "lat": 25.082483, "lng": 121.4975667 }
  },
  {
    "name": "新北市私立安安堡幼兒園",
    "address": "[235]新北市中和區中原里1鄰橋和路298號1,2樓",
    "location": { "lat": 25.0069621, "lng": 121.4968961 }
  },
  {
    "name": "新北市私立夏綠蒂幼兒園",
    "address": "[241]新北市三重區五順里25鄰五華街21巷15號1、2、3樓及13號2、3樓",
    "location": { "lat": 25.0806057, "lng": 121.4952243 }
  },
  {
    "name": "新北市私立德全幼兒園",
    "address": "[235]新北市中和區平河里33鄰民樂路75號1樓、75之1號2樓、77之1號2樓",
    "location": { "lat": 25.0014719, "lng": 121.484307 }
  },
  {
    "name": "新北市私立底格里思幼兒園",
    "address": "[235]新北市中和區平河里62鄰中正路675號1~2樓",
    "location": { "lat": 24.9970149, "lng": 121.4849949 }
  },
  {
    "name": "遊戲橘子數位科技股份有限公司附設新北市私立幼橘園幼兒園",
    "address": "[235]新北市中和區平河里1鄰連城路260號1樓及268號2樓",
    "location": { "lat": 24.996664, "lng": 121.4867002 }
  },
  {
    "name": "新北市私立小博士幼兒園",
    "address": "[235]新北市中和區平河里2鄰中正路792號1,2,3樓,800號2樓之3",
    "location": { "lat": 25.0012935, "lng": 121.4852531 }
  },
  {
    "name": "新北市私立普林斯頓幼兒園",
    "address": "[235]新北市中和區平河里51鄰中正路839巷31號",
    "location": { "lat": 25.002281, "lng": 121.483644 }
  },
  {
    "name": "新北市私立勝利幼兒園",
    "address": "[235]新北市中和區信和里10鄰新生街186巷5弄13號",
    "location": { "lat": 24.9992226, "lng": 121.4829688 }
  },
  {
    "name": "新北市私立聖中幼兒園",
    "address": "[235]新北市中和區信和里1鄰新生街166巷、18、20號、20之1號",
    "location": { "lat": 25.0001249, "lng": 121.4834436 }
  },
  {
    "name": "新北市私立安邦幼兒園",
    "address": "[235]新北市中和區仁和里35鄰連城路477巷6弄1、3號1樓",
    "location": { "lat": 24.994978, "lng": 121.483027 }
  },
  {
    "name": "新北市私立育心寶貝幼兒園",
    "address": "[235]新北市中和區中正里12鄰連城路389巷11號1樓",
    "location": { "lat": 24.9952252, "lng": 121.4867044 }
  },
  {
    "name": "新北市私立成真幼兒園",
    "address": "[235]新北市中和區力行里18鄰圓通路160號2樓",
    "location": { "lat": 24.9955968, "lng": 121.4976987 }
  },
  {
    "name": "南山學校財團法人新北市南山高級中學附設私立員工幼兒園",
    "address": "[235]新北市中和區枋寮里19鄰廣福路41號1樓",
    "location": { "lat": 25.0015811, "lng": 121.5034274 }
  },
  {
    "name": "新北市私立永華幼兒園",
    "address": "[235]新北市中和區連城里1鄰連城路75巷8、10號",
    "location": { "lat": 24.9996281, "lng": 121.4969367 }
  },
  {
    "name": "新北市私立育才幼兒園",
    "address": "[235]新北市中和區漳和里9鄰景新街48號1、2樓及2樓之1",
    "location": { "lat": 24.9989802, "lng": 121.5037771 }
  },
  {
    "name": "新北市私立實踐幼兒園",
    "address": "[235]新北市中和區福真里32鄰中山路2段312巷45弄9號、11號、13號、35號、37號1樓",
    "location": { "lat": 25.0045632, "lng": 121.4947743 }
  },
  {
    "name": "新北市私立嘉煌幼兒園",
    "address": "[235]新北市中和區瓦窯里1鄰中山路2段63、65號各1、2、3樓",
    "location": { "lat": 25.002031, "lng": 121.493912 }
  },
  {
    "name": "新北市私立白兔幼兒園",
    "address": "[235]新北市中和區佳和里19鄰中山路二段2巷77,79號",
    "location": { "lat": 25.0073911, "lng": 121.5012481 }
  },
  {
    "name": "新北市私立雙和巨星幼兒園",
    "address": "[235]新北市中和區瓦窯里21鄰光華街100號、102號及106號1樓",
    "location": { "lat": 25.0024959, "lng": 121.5064747 }
  },
  {
    "name": "新北市私立德明幼兒園",
    "address": "[235]新北市中和區福真里27鄰中山路二段312巷3弄7號1樓、1弄8號1樓",
    "location": { "lat": 25.002929, "lng": 121.4952887 }
  },
  {
    "name": "新北市私立春池幼兒園",
    "address": "[235]新北市中和區安樂里29鄰宜安路118巷2號1樓及112號2樓、2樓之1、2樓之2、2樓之3",
    "location": { "lat": 24.998157, "lng": 121.510496 }
  },
  {
    "name": "新北市私立崇儒幼兒園",
    "address": "[235]新北市中和區安樂里16鄰宜安路56之1號1樓",
    "location": { "lat": 24.9968989, "lng": 121.5118078 }
  },
  {
    "name": "新北市私立長頸鹿宜安幼兒園",
    "address": "[235]新北市中和區安和里15鄰宜安路99號2樓",
    "location": { "lat": 24.9976629, "lng": 121.51042 }
  },
  {
    "name": "新北市私立謙禧幼兒園",
    "address": "[235]新北市中和區佳和里10鄰中山路二段64巷12弄1號1樓",
    "location": { "lat": 25.0052721, "lng": 121.5036891 }
  },
  {
    "name": "新北市私立新天地國際蒙特梭利幼兒園",
    "address": "[235]新北市中和區泰安里42鄰景安路49號1、2樓",
    "location": { "lat": 24.998276, "lng": 121.5073665 }
  },
  {
    "name": "新北市私立日光幼兒園",
    "address": "[235]新北市中和區新南里25鄰中正路80號2樓之1",
    "location": { "lat": 24.9938723, "lng": 121.5004793 }
  },
  {
    "name": "新北市私立巧新幼兒園",
    "address": "[235]新北市中和區新南里37鄰景平路509號1、2樓",
    "location": { "lat": 24.9985887, "lng": 121.4992976 }
  },
  {
    "name": "新北市私立嘉嘉幼兒園",
    "address": "[235]新北市中和區安平里39鄰中安街188號1~2樓",
    "location": { "lat": 24.9993045, "lng": 121.5112393 }
  },
  {
    "name": "新北市私立安特幼兒園",
    "address": "[235]新北市中和區新南里40鄰景平路431巷1號1樓、3號1~2樓",
    "location": { "lat": 24.9958498, "lng": 121.5002894 }
  },
  {
    "name": "新北市私立華登幼兒園",
    "address": "[235]新北市中和區新南里37鄰景平路505號1樓及505之1號2樓",
    "location": { "lat": 24.9984992, "lng": 121.499532 }
  },
  {
    "name": "新北市私立芫銘幼兒園",
    "address": "[235]新北市中和區秀明里10鄰大勇街25巷29弄4號1樓",
    "location": { "lat": 24.993949, "lng": 121.515133 }
  },
  {
    "name": "新北市私立忠合幼兒園",
    "address": "[235]新北市中和區秀福里4鄰秀朗路3段10巷14弄110號",
    "location": { "lat": 24.9967142, "lng": 121.5229839 }
  },
  {
    "name": "財團法人新北市私立竹林高級中學附設新北市私立竹林幼兒園",
    "address": "[235]新北市中和區華新里27鄰華新街143巷12之1號1、2樓",
    "location": { "lat": 24.9808934, "lng": 121.5064184 }
  },
  {
    "name": "新北市私立迪仕尼幼兒園",
    "address": "[235]新北市中和區東南里16鄰忠孝街57號1樓、57之1號1樓",
    "location": { "lat": 24.9846517, "lng": 121.5115905 }
  },
  {
    "name": "新北市私立小小幼兒園",
    "address": "[235]新北市中和區秀仁里5鄰大勇街60巷16號1樓,18號1樓,16之1號",
    "location": { "lat": 24.9946309, "lng": 121.5188058 }
  },
  {
    "name": "新北市私立格林幼兒園",
    "address": "[235]新北市中和區壽南里18鄰興南路一段117巷1弄1及3號1樓、107號1樓、107-1號2樓、109號1樓、109-1號2樓",
    "location": { "lat": 24.9877962, "lng": 121.5095779 }
  },
  {
    "name": "新北市私立泡泡龍幼兒園",
    "address": "[235]新北市中和區外南里21鄰復興路55號1樓、2樓",
    "location": { "lat": 24.9901134, "lng": 121.5043651 }
  },
  {
    "name": "新北市私立兆元幼兒園",
    "address": "[235]新北市中和區復興里38鄰中和市復興路280巷46弄3、4、5號",
    "location": { "lat": 24.992102, "lng": 121.5012181 }
  },
  {
    "name": "新北市私立景光幼兒園",
    "address": "[235]新北市中和區景南里5鄰景新街467巷35弄16,18號各1樓",
    "location": { "lat": 24.9890241, "lng": 121.5141373 }
  },
  {
    "name": "新北市私立辰修幼兒園",
    "address": "[235]新北市中和區復興里31鄰復興路280巷3弄7號、9號",
    "location": { "lat": 24.9908455, "lng": 121.5018769 }
  },
  {
    "name": "新北市私立布朗尼幼兒園",
    "address": "[235]新北市中和區和興里31鄰中正路25號1~2樓、27號1~2樓、29號1~2樓、31號1~2樓",
    "location": { "lat": 24.9932849, "lng": 121.5024802 }
  },
  {
    "name": "新北市私立興南幼兒園",
    "address": "[235]新北市中和區景平里26鄰景新街347號2樓",
    "location": { "lat": 24.9910163, "lng": 121.5120424 }
  },
  {
    "name": "新北市私立真理蒙特梭利幼兒園",
    "address": "[235]新北市中和區景新里11鄰興南路一段34巷2號1、2、3樓",
    "location": { "lat": 24.9914079, "lng": 121.5108897 }
  },
  {
    "name": "財團法人天主教會臺北教區附設新北市私立玫瑰幼兒園",
    "address": "[235]新北市中和區景福里9鄰景平路329巷1弄5號",
    "location": { "lat": 24.9926183, "lng": 121.5060977 }
  },
  {
    "name": "新北市私立創意蘋果幼兒園",
    "address": "[235]新北市中和區錦和里2鄰圓通路367巷2號2樓",
    "location": { "lat": 24.9892289, "lng": 121.4912283 }
  },
  {
    "name": "新北市私立景平幼兒園",
    "address": "[235]新北市中和區景福里14鄰和平街54巷1弄4.6號",
    "location": { "lat": 24.9915563, "lng": 121.5085365 }
  },
  {
    "name": "新北市私立弘恩幼兒園",
    "address": "[235]新北市中和區積穗里12鄰員山路406號1~2樓",
    "location": { "lat": 25.0048913, "lng": 121.4805175 }
  },
  {
    "name": "新北市私立景新幼兒園",
    "address": "[235]新北市中和區景安里44鄰景新街231之6號1樓",
    "location": { "lat": 24.9946849, "lng": 121.5081888 }
  },
  {
    "name": "新北市私立文大幼兒園",
    "address": "[235]新北市中和區積穗里6鄰員山路428號1及2樓",
    "location": { "lat": 25.0053148, "lng": 121.4803237 }
  },
  {
    "name": "新北市私立佳南幼兒園",
    "address": "[235]新北市中和區嘉新里11鄰民安街42巷32號",
    "location": { "lat": 25.0011594, "lng": 121.4793551 }
  },
  {
    "name": "新北市私立民治園幼兒園",
    "address": "[235]新北市中和區明穗里27鄰民治街4號1樓,4-1號1樓",
    "location": { "lat": 25.0055927, "lng": 121.4748095 }
  },
  {
    "name": "新北市私立民德義泉幼兒園",
    "address": "[235]新北市中和區清穗里4鄰民德路198號1、2、3樓",
    "location": { "lat": 24.9987411, "lng": 121.4682504 }
  },
  {
    "name": "新北市私立中仁幼兒園",
    "address": "[235]新北市中和區明穗里12鄰民享街92巷19.21.23號1樓",
    "location": { "lat": 24.9995649, "lng": 121.473928 }
  },
  {
    "name": "新北市私立義泉幼兒園",
    "address": "[235]新北市中和區清穗里13鄰國光街215巷8弄1、3、5號1、2樓",
    "location": { "lat": 25.0008602, "lng": 121.4668477 }
  },
  {
    "name": "新北市私立新時代幼兒園",
    "address": "[235]新北市中和區德穗里16鄰莒光路120巷14號1~2樓、16號1~2樓",
    "location": { "lat": 25.0017438, "lng": 121.4715691 }
  },
  {
    "name": "新北市私立時代幼兒園",
    "address": "[235]新北市中和區德穗里15鄰莒光路84巷22號1樓、24號1樓",
    "location": { "lat": 25.002134, "lng": 121.471649 }
  },
  {
    "name": "新北市私立茁壯園中和幼兒園",
    "address": "[235]新北市中和區民生里1鄰民生街8號1樓、2樓",
    "location": { "lat": 25.006263, "lng": 121.4714032 }
  },
  {
    "name": "新北市私立中和松柏幼兒園",
    "address": "[235]新北市中和區國光里14鄰國光街112巷38號、40號、42號",
    "location": { "lat": 25.0022232, "lng": 121.4681133 }
  },
  {
    "name": "新北市私立安欣幼兒園",
    "address": "[235]新北市中和區壽德里27鄰民德路358號1樓",
    "location": { "lat": 24.993983, "lng": 121.466152 }
  },
  {
    "name": "新北市私立逸德幼兒園",
    "address": "[235]新北市中和區宜安里11鄰宜安路26巷1號",
    "location": { "lat": 24.9960391, "lng": 121.5131913 }
  },
  {
    "name": "新北市私立偉恩幼兒園",
    "address": "[235]新北市中和區明德里21鄰華順街103巷1號",
    "location": { "lat": 24.997498, "lng": 121.4655489 }
  },
  {
    "name": "新北市私立華人幼兒園",
    "address": "[235]新北市中和區秀水里11鄰大仁街10巷52號",
    "location": { "lat": 24.992527, "lng": 121.5203149 }
  },
  {
    "name": "新北市私立中和宏仁幼兒園",
    "address": "[235]新北市中和區秀水里28鄰大仁街20巷25弄37.39號",
    "location": { "lat": 24.9935215, "lng": 121.5194938 }
  },
  {
    "name": "新北市私立森堡幼兒園",
    "address": "[235]新北市中和區安順里34鄰保健路123號1、2樓，125號1樓",
    "location": { "lat": 24.9959885, "lng": 121.5123332 }
  },
  {
    "name": "新北市私立椰林幼兒園",
    "address": "[235]新北市中和區安順里30鄰中和市安平路68號1樓及夾層",
    "location": { "lat": 24.9962142, "lng": 121.5108986 }
  },
  {
    "name": "新北市私立福樂幼兒園",
    "address": "[235]新北市中和區中興里18鄰中興街200號",
    "location": { "lat": 24.9909522, "lng": 121.4998532 }
  },
  {
    "name": "新北市私立全晟幼兒園",
    "address": "[235]新北市中和區碧河里2鄰連城路219巷9.11.13.15號",
    "location": { "lat": 24.997327, "lng": 121.4943574 }
  },
  {
    "name": "新北市私立永愛幼兒園",
    "address": "[235]新北市中和區秀義里13鄰秀朗路三段128巷12弄7號",
    "location": { "lat": 24.992875, "lng": 121.5248501 }
  },
  {
    "name": "新北市私立艾蒙幼兒園",
    "address": "[235]新北市中和區錦中里15鄰圓通路290巷1ˋ3號1樓及292巷2號1樓",
    "location": { "lat": 24.9894768, "lng": 121.4905153 }
  },
  {
    "name": "新北市私立民治藝術幼兒園",
    "address": "[235]新北市中和區民有里14鄰民治街4號2樓",
    "location": { "lat": 25.0055087, "lng": 121.4748442 }
  },
  {
    "name": "新北市私立貝吉堡幼兒園",
    "address": "[235]新北市中和區錦中里8鄰錦和路203巷1號、203巷1號2樓（門牌整編含201號、201之1號）",
    "location": { "lat": 24.990493, "lng": 121.490914 }
  },
  {
    "name": "新北市私立連城幼兒園",
    "address": "[235]新北市中和區嘉慶里15鄰連城路537號",
    "location": { "lat": 24.99482, "lng": 121.4804712 }
  },
  {
    "name": "新北市私立欣明幼兒園",
    "address": "[235]新北市中和區錦中里18鄰圓通路294巷11弄4、6號",
    "location": { "lat": 24.9900182, "lng": 121.4883347 }
  },
  {
    "name": "新北市私立奧林匹克幼兒園",
    "address": "[235]新北市中和區嘉慶里15鄰連城路533號2樓",
    "location": { "lat": 24.9947624, "lng": 121.4806877 }
  },
  {
    "name": "新北市私立文揚幼兒園",
    "address": "[234]新北市永和區福林里17鄰豫溪街162巷12號1、2樓",
    "location": { "lat": 25.0091289, "lng": 121.5235971 }
  },
  {
    "name": "新北市私立吉的堡佳樂幼兒園",
    "address": "[234]新北市永和區福林里22鄰福和路95號1樓至2樓",
    "location": { "lat": 25.0078311, "lng": 121.5220276 }
  },
  {
    "name": "新北市私立快樂瑪麗安葳森幼兒園",
    "address": "[234]新北市永和區豫溪里15鄰竹林路176號3樓",
    "location": { "lat": 25.009872, "lng": 121.520258 }
  },
  {
    "name": "新北市私立宏幼幼兒園",
    "address": "[234]新北市永和區福林里16鄰豫溪街160巷3號1樓",
    "location": { "lat": 25.0095992, "lng": 121.5234436 }
  },
  {
    "name": "財團法人台灣省台北縣私立育才國民小學附設新北市私立幼兒園",
    "address": "[234]新北市永和區永貞里2鄰福和路125巷20號",
    "location": { "lat": 25.0070989, "lng": 121.5217335 }
  },
  {
    "name": "新北市私立野聲幼兒園",
    "address": "[234]新北市永和區豫溪里11鄰豫溪街74巷7弄2號1樓至3樓、4號1樓至3樓",
    "location": { "lat": 25.0096101, "lng": 121.517606 }
  },
  {
    "name": "新北市私立比弗利幼兒園",
    "address": "[234]新北市永和區民治里2鄰中正路232號3樓、234號2、3樓",
    "location": { "lat": 24.9979143, "lng": 121.5162473 }
  },
  {
    "name": "新北市私立荳荳幼兒園",
    "address": "[234]新北市永和區永元里16鄰得和路249-1號",
    "location": { "lat": 25.0001162, "lng": 121.5208348 }
  },
  {
    "name": "新北市私立永達幼兒園",
    "address": "[234]新北市永和區永福里3鄰永貞路39巷9弄7號、9號",
    "location": { "lat": 25.007018, "lng": 121.522 }
  },
  {
    "name": "新北市私立淯馨幼兒園",
    "address": "[234]新北市永和區秀林里1鄰秀朗路二段98號、100號",
    "location": { "lat": 25.0015752, "lng": 121.5237737 }
  },
  {
    "name": "新北市私立永佳幼兒園",
    "address": "[234]新北市永和區中溪里5鄰永平路218巷2號",
    "location": { "lat": 25.0105447, "lng": 121.509332 }
  },
  {
    "name": "新北市私立艾瑞克幼兒園",
    "address": "[234]新北市永和區民權里7鄰民權路37號1樓",
    "location": { "lat": 24.9975201, "lng": 121.5201511 }
  },
  {
    "name": "新北市私立安迪生幼兒園",
    "address": "[234]新北市永和區永安里6鄰永貞路228號1樓、2樓",
    "location": { "lat": 25.0040584, "lng": 121.5150233 }
  },
  {
    "name": "新北市私立秀明幼兒園",
    "address": "[234]新北市永和區民權里2鄰民權路1巷24號、26號",
    "location": { "lat": 24.9983317, "lng": 121.5214296 }
  },
  {
    "name": "新北市私立科見幼兒園",
    "address": "[234]新北市永和區民權里1鄰民權路53號3樓之1",
    "location": { "lat": 24.9966733, "lng": 121.5201917 }
  },
  {
    "name": "天主教耕莘醫療財團法人附設新北市私立永和耕莘幼兒園",
    "address": "[234]新北市永和區中興里14鄰竹林路66巷17之4號1樓至2樓",
    "location": { "lat": 25.0130116, "lng": 121.5177767 }
  },
  {
    "name": "財團法人新北市私立竹林國民小學附設幼兒園",
    "address": "[234]新北市永和區勵行里16鄰竹林路34號",
    "location": { "lat": 25.0145585, "lng": 121.5170389 }
  },
  {
    "name": "新北市私立雅德賽思幼兒園",
    "address": "[234]新北市永和區秀成里9鄰成功路一段93巷13弄39號1樓至2樓",
    "location": { "lat": 25.0028522, "lng": 121.5275586 }
  },
  {
    "name": "新北市私立永育兒童城幼兒園",
    "address": "[234]新北市永和區上溪里15鄰仁愛路8號2樓",
    "location": { "lat": 25.013745, "lng": 121.515069 }
  },
  {
    "name": "新北市私立培賢幼兒園",
    "address": "[234]新北市永和區竹林里6鄰竹林路179巷25號1樓",
    "location": { "lat": 25.010263, "lng": 121.521619 }
  },
  {
    "name": "新北市私立巧可麗幼兒園",
    "address": "[234]新北市永和區勵行里16鄰竹林路30號之1及竹林路32巷6號",
    "location": { "lat": 25.0083833, "lng": 121.5209887 }
  },
  {
    "name": "新北市私立七賢幼兒園",
    "address": "[234]新北市永和區竹林里1鄰竹林路119巷10弄6號",
    "location": { "lat": 25.011234, "lng": 121.520604 }
  },
  {
    "name": "新北市私立彩虹鳥蒙特梭利幼兒園",
    "address": "[234]新北市永和區雙和里1鄰中和路377號2樓",
    "location": { "lat": 24.9999, "lng": 121.50838 }
  },
  {
    "name": "新北市私立微笑太陽幼兒園",
    "address": "[234]新北市永和區雙和里13鄰中和路305巷10弄1.3號",
    "location": { "lat": 25.0006927, "lng": 121.5073631 }
  },
  {
    "name": "新北市私立喬幼國際幼兒園",
    "address": "[234]新北市永和區雙和里4鄰中和路435號1-2樓",
    "location": { "lat": 25.0011254, "lng": 121.5095544 }
  },
  {
    "name": "新北市私立藍天永和幼兒園",
    "address": "[234]新北市永和區雙和里1鄰中和路375號3樓",
    "location": { "lat": 24.999843, "lng": 121.508407 }
  },
  {
    "name": "新北市私立嘉樂幼兒園",
    "address": "[234]新北市永和區安和里10鄰中和路501巷17號",
    "location": { "lat": 25.0030098, "lng": 121.5103026 }
  },
  {
    "name": "新北市私立育圃幼兒園",
    "address": "[234]新北市永和區安和里4鄰中和路483號2樓、2樓之1",
    "location": { "lat": 25.0020396, "lng": 121.5103903 }
  },
  {
    "name": "新北市私立奧爾仕幼兒園",
    "address": "[234]新北市永和區水源里20鄰保平路203巷2號",
    "location": { "lat": 25.0049004, "lng": 121.5088123 }
  },
  {
    "name": "新北市私立巧可麗雙和幼兒園",
    "address": "[234]新北市永和區潭墘里8鄰安樂路170號",
    "location": { "lat": 25.0008577, "lng": 121.5145811 }
  },
  {
    "name": "新北市私立幼學館幼兒園",
    "address": "[234]新北市永和區潭安里12鄰中正路259號1樓、2樓",
    "location": { "lat": 25.0006164, "lng": 121.5175704 }
  },
  {
    "name": "新北市私立翰尼永和幼兒園",
    "address": "[234]新北市永和區協和里10鄰永平路51號2樓",
    "location": { "lat": 25.0086026, "lng": 121.5127809 }
  },
  {
    "name": "新北市私立新新幼兒園",
    "address": "[234]新北市永和區保平里17鄰保平路292巷36弄3、5號",
    "location": { "lat": 25.005151, "lng": 121.5080341 }
  },
  {
    "name": "新北市私立巨堡幼兒園",
    "address": "[234]新北市永和區福和里20鄰永寧街115巷1號及3號",
    "location": { "lat": 25.0062259, "lng": 121.5183235 }
  },
  {
    "name": "新北市私立詠慈幼兒園",
    "address": "[234]新北市永和區福和里7鄰中正路570號2樓",
    "location": { "lat": 25.006214, "lng": 121.517289 }
  },
  {
    "name": "新北市私立佳美幼兒園",
    "address": "[234]新北市永和區福和里11鄰永利路8號",
    "location": { "lat": 25.005914, "lng": 121.5176465 }
  },
  {
    "name": "新北市私立新七賢幼兒園",
    "address": "[234]新北市永和區復興里9鄰竹林路39巷17號1樓、2樓",
    "location": { "lat": 25.0148279, "lng": 121.5186301 }
  },
  {
    "name": "新北市私立新佳美幼兒園",
    "address": "[234]新北市永和區得和里18鄰中正路412巷4弄8、10、12、14號",
    "location": { "lat": 25.0013977, "lng": 121.5184097 }
  },
  {
    "name": "新北市私立傳動幼兒園",
    "address": "[234]新北市永和區得和里23鄰中正路344號1樓、2樓",
    "location": { "lat": 25.0003455, "lng": 121.5178444 }
  },
  {
    "name": "新北市私立民華幼兒園",
    "address": "[234]新北市永和區智光里2鄰民有街6號1,2樓",
    "location": { "lat": 24.99708, "lng": 121.5158086 }
  },
  {
    "name": "新北市私立中中幼兒園",
    "address": "[234]新北市永和區和平里16鄰中山路一段191巷15弄8號、10號、12號",
    "location": { "lat": 25.0076429, "lng": 121.509499 }
  },
  {
    "name": "新北市私立新惠幼幼兒園",
    "address": "[234]新北市永和區下溪里13鄰保安路252巷2號1.2樓",
    "location": { "lat": 25.0126502, "lng": 121.5059929 }
  },
  {
    "name": "新北市私立育苗幼兒園",
    "address": "[234]新北市永和區秀和里2鄰林森路40巷6弄2號",
    "location": { "lat": 25.0053426, "lng": 121.5251076 }
  },
  {
    "name": "財團法人新北市私立及人國民小學附設新北市私立幼兒園",
    "address": "[234]新北市永和區新?里6鄰文化路172號",
    "location": { "lat": 25.0156474, "lng": 121.5120048 }
  },
  {
    "name": "新北市私立三暉幼兒園",
    "address": "[234]新北市永和區秀和里9鄰永亨路115巷2號、4號1樓",
    "location": { "lat": 25.0046478, "lng": 121.5237745 }
  },
  {
    "name": "新北市私立卡兒堡幼兒園",
    "address": "[234]新北市永和區信義里3鄰信義路17巷24號1樓",
    "location": { "lat": 25.01126, "lng": 121.513088 }
  },
  {
    "name": "新北市私立合安幼兒園",
    "address": "[234]新北市永和區民富里14鄰民樂街59巷15號",
    "location": { "lat": 24.9983359, "lng": 121.5283312 }
  },
  {
    "name": "新北市私立何嘉仁得和幼兒園",
    "address": "[234]新北市永和區秀元里10鄰得和路273之2號1樓至3樓、273號2樓至3樓、273號2樓之1、273號3樓之1",
    "location": { "lat": 24.999982, "lng": 121.522111 }
  },
  {
    "name": "新北市私立親親幼兒園",
    "address": "[234]新北市永和區永樂里16鄰永和路一段112號2樓",
    "location": { "lat": 25.007416, "lng": 121.513671 }
  },
  {
    "name": "新北市私立幼森幼兒園",
    "address": "[234]新北市永和區永樂里5鄰永和路一段18巷2號1樓",
    "location": { "lat": 25.0045476, "lng": 121.5130705 }
  },
  {
    "name": "小太陽教育事業股份有限公司附設新北市私立小太陽美學幼兒園",
    "address": "[234]新北市永和區保順里37鄰仁愛路282巷6號1樓、282巷10弄6號1樓",
    "location": { "lat": 25.0084899, "lng": 121.5036728 }
  },
  {
    "name": "新北市私立安迪芬幼兒園",
    "address": "[234]新北市永和區信義里2鄰信義路17巷9弄1號及3號1樓至2樓",
    "location": { "lat": 25.011616, "lng": 121.513952 }
  },
  {
    "name": "新北市私立太陽花幼兒園",
    "address": "[242]新北市新莊區海山里21鄰中正路425號1.2樓",
    "location": { "lat": 25.0341605, "lng": 121.4441582 }
  },
  {
    "name": "新北市私立勵輝國際幼兒園",
    "address": "[242]新北市新莊區頭前里5鄰頭前路26號2樓（2、3層）",
    "location": { "lat": 25.0525194, "lng": 121.4678113 }
  },
  {
    "name": "新北市私立塏地安幼兒園",
    "address": "[242]新北市新莊區頭前里3鄰化成路492巷10號",
    "location": { "lat": 25.051849, "lng": 121.4669088 }
  },
  {
    "name": "新北市私立幼愛幼兒園",
    "address": "[242]新北市新莊區忠孝里10鄰建中街116巷1弄4號1樓，忠孝里9鄰建中街124、126、128號1樓",
    "location": { "lat": 25.0373689, "lng": 121.4495676 }
  },
  {
    "name": "新北市私立勵輝幼兒園",
    "address": "[242]新北市新莊區頭前里5鄰頭前路26號1樓",
    "location": { "lat": 25.0525194, "lng": 121.4678113 }
  },
  {
    "name": "新北市私立傑出幼兒園",
    "address": "[242]新北市新莊區頭前里14鄰中原東路50號1~2樓",
    "location": { "lat": 25.0547097, "lng": 121.4640714 }
  },
  {
    "name": "新北市私立僑治亞頭前幼兒園",
    "address": "[242]新北市新莊區頭前里4鄰化成路540之2號(1樓)",
    "location": { "lat": 25.0533379, "lng": 121.466485 }
  },
  {
    "name": "新北市私立捷群幼兒園",
    "address": "[242]新北市新莊區後港里21鄰建安街16巷6號1樓",
    "location": { "lat": 25.026568, "lng": 121.428232 }
  },
  {
    "name": "新北市私立妙博士幼兒園",
    "address": "[242]新北市新莊區文衡里12鄰景德路212號1樓至2樓",
    "location": { "lat": 25.0338194, "lng": 121.4490721 }
  },
  {
    "name": "新北市私立寶貝家族幼兒園",
    "address": "[242]新北市新莊區文衡里4鄰新泰路17號1樓",
    "location": { "lat": 25.0327299, "lng": 121.4496028 }
  },
  {
    "name": "新北市私立欣園幼兒園",
    "address": "[242]新北市新莊區中美里8鄰中港路207巷14號",
    "location": { "lat": 25.041888, "lng": 121.453756 }
  },
  {
    "name": "新北市私立千暉幼兒園",
    "address": "[242]新北市新莊區八德里12鄰八德街95巷1弄2、4號",
    "location": { "lat": 25.0212747, "lng": 121.424595 }
  },
  {
    "name": "財團法人天主教會台北教區附設新北市私立鳴遠幼兒園",
    "address": "[242]新北市新莊區興漢里18鄰新興街1號",
    "location": { "lat": 25.0358585, "lng": 121.4506802 }
  },
  {
    "name": "新北市私立成德幼兒園",
    "address": "[242]新北市新莊區西盛里5鄰民安東路48號1、2、3樓",
    "location": { "lat": 25.020576, "lng": 121.42943 }
  },
  {
    "name": "新北市私立大蘋?幼兒園",
    "address": "[242]新北市新莊區中和里25鄰中和街46號",
    "location": { "lat": 25.0443699, "lng": 121.4482027 }
  },
  {
    "name": "新北市私立大華幼兒園",
    "address": "[242]新北市新莊區中泰里11鄰中港二街35號、37號",
    "location": { "lat": 25.0453735, "lng": 121.4503674 }
  },
  {
    "name": "新北市私立福華幼兒園",
    "address": "[242]新北市新莊區中和里13鄰德豐街1號1樓",
    "location": { "lat": 25.0436848, "lng": 121.4516104 }
  },
  {
    "name": "新北市私立生活家幼兒園",
    "address": "[242]新北市新莊區瓊林里3鄰瓊泰路36號1樓、38號1、2樓",
    "location": { "lat": 25.028673, "lng": 121.444103 }
  },
  {
    "name": "新北市私立蓮育幼兒園",
    "address": "[242]新北市新莊區瓊林里7鄰瓊林路瓊英巷7號及9號1樓",
    "location": { "lat": 25.027424, "lng": 121.443394 }
  },
  {
    "name": "新北市私立儒林幼兒園",
    "address": "[242]新北市新莊區裕民里32鄰中正路新生巷73,75號1樓",
    "location": { "lat": 25.022137, "lng": 121.4174392 }
  },
  {
    "name": "新北市私立惠園幼兒園",
    "address": "[242]新北市新莊區裕民里2鄰中正路新雅巷20號1,2樓",
    "location": { "lat": 25.0256456, "lng": 121.4176896 }
  },
  {
    "name": "新北市私立育全幼兒園",
    "address": "[242]新北市新莊區裕民里17鄰裕民街85巷5號、9號及55巷14號",
    "location": { "lat": 25.0236407, "lng": 121.4188085 }
  },
  {
    "name": "新北市私立傑安幼兒園",
    "address": "[242]新北市新莊區文明里16鄰中正路161號1樓",
    "location": { "lat": 25.036408, "lng": 121.455381 }
  },
  {
    "name": "新北市私立傑瑞兒童村幼兒園",
    "address": "[242]新北市新莊區裕民里25鄰中正路887-27號1,2樓、887-27號2樓之1號",
    "location": { "lat": 25.0235209, "lng": 121.416358 }
  },
  {
    "name": "新北市私立建和幼兒園",
    "address": "[242]新北市新莊區文明里11鄰中正路149號2樓",
    "location": { "lat": 25.036653, "lng": 121.4562486 }
  },
  {
    "name": "建豐建設股份有限公司附設新北市私立卡爾維德幼兒園",
    "address": "[242]新北市新莊區思源里5鄰復興路3段19號1.2.3樓",
    "location": { "lat": 25.0446544, "lng": 121.460634 }
  },
  {
    "name": "新北市私立新育幼幼兒園",
    "address": "[242]新北市新莊區思源里19鄰民樂街49號、55號",
    "location": { "lat": 25.0414601, "lng": 121.4578039 }
  },
  {
    "name": "財團法人天主教會台北教區附設新北市私立恆毅幼兒園",
    "address": "[242]新北市新莊區立人里4鄰中正路128巷5號1樓、2樓",
    "location": { "lat": 25.0364844, "lng": 121.452751 }
  },
  {
    "name": "新北市私立親親袋鼠幼兒園",
    "address": "[242]新北市新莊區思源里3鄰思源路87巷11號1樓、11之1號1樓",
    "location": { "lat": 25.040964, "lng": 121.459421 }
  },
  {
    "name": "新北市私立成功幼兒園",
    "address": "[242]新北市新莊區南港里3鄰四維路20號1樓、2樓、3樓",
    "location": { "lat": 25.0225775, "lng": 121.4228512 }
  },
  {
    "name": "新北市私立愛德華幼兒園",
    "address": "[242]新北市新莊區立德里14鄰和興街41號1~2樓",
    "location": { "lat": 25.0404513, "lng": 121.4465854 }
  },
  {
    "name": "新北市私立何嘉仁昌隆幼兒園",
    "address": "[242]新北市新莊區信義里25鄰昌隆街67號2樓、69號2樓、75號2樓",
    "location": { "lat": 25.0511022, "lng": 121.4571633 }
  },
  {
    "name": "新北市私立互仁幼兒園",
    "address": "[242]新北市新莊區信義里24鄰福壽街99巷6弄1號1樓",
    "location": { "lat": 25.0505378, "lng": 121.4569723 }
  },
  {
    "name": "新北市私立宏仁幼兒園",
    "address": "[242]新北市新莊區立功里19鄰中平路6巷42、44號",
    "location": { "lat": 25.0427541, "lng": 121.4455672 }
  },
  {
    "name": "新北市私立惠群幼兒園",
    "address": "[242]新北市新莊區化成里15鄰化成路143號",
    "location": { "lat": 25.048826, "lng": 121.4656545 }
  },
  {
    "name": "新北市私立寧馨園幼兒園",
    "address": "[242]新北市新莊區民安里29鄰龍安路517號1樓",
    "location": { "lat": 25.017897, "lng": 121.427091 }
  },
  {
    "name": "新北市私立永錡光華幼兒園",
    "address": "[242]新北市新莊區光華里2鄰民安西路410巷15號3樓",
    "location": { "lat": 25.0088949, "lng": 121.428039 }
  },
  {
    "name": "新北市私立永松幼兒園",
    "address": "[242]新北市新莊區光華里7鄰光華街24、26號1、2樓",
    "location": { "lat": 25.010522, "lng": 121.42895 }
  },
  {
    "name": "新北市私立永錡幼兒園",
    "address": "[242]新北市新莊區光華里2鄰民安西路410巷15號1.2樓",
    "location": { "lat": 25.0090767, "lng": 121.4280271 }
  },
  {
    "name": "新北市私立永錡新莊幼兒園",
    "address": "[242]新北市新莊區光華里2鄰民安西路410巷19號1、2、3樓",
    "location": { "lat": 25.0093157, "lng": 121.4282426 }
  },
  {
    "name": "新北市私立大世紀幼兒園",
    "address": "[242]新北市新莊區思賢里2鄰公園路129號2樓",
    "location": { "lat": 25.0408291, "lng": 121.456949 }
  },
  {
    "name": "輔仁大學學校財團法人輔仁大學附設新北市私立幼兒園",
    "address": "[242]新北市新莊區營盤里19鄰中正路510號",
    "location": { "lat": 25.035976, "lng": 121.450478 }
  },
  {
    "name": "新北市私立愛蜜立幼兒園",
    "address": "[242]新北市新莊區光榮里1鄰西盛街199之1號1、2樓",
    "location": { "lat": 25.017051, "lng": 121.428278 }
  },
  {
    "name": "新北市私立心慈幼兒園",
    "address": "[242]新北市新莊區丹鳳里5鄰中正路700-14號1-~2樓、700-15號1~2樓",
    "location": { "lat": 25.027737, "lng": 121.418322 }
  },
  {
    "name": "新北市私立安安幼兒園",
    "address": "[242]新北市新莊區光明里3鄰民安西路150巷1號",
    "location": { "lat": 25.0164309, "lng": 121.425785 }
  },
  {
    "name": "新北市私立民生幼兒園",
    "address": "[242]新北市新莊區自立里7鄰自立街214巷9弄1號、3號",
    "location": { "lat": 25.045202, "lng": 121.457434 }
  },
  {
    "name": "新北市私立文笙幼兒園",
    "address": "[242]新北市新莊區幸福里30鄰昌隆街86號1,2樓88號1,2樓",
    "location": { "lat": 25.0506961, "lng": 121.4559411 }
  },
  {
    "name": "新北市私立超級小太陽幼兒園",
    "address": "[242]新北市新莊區雙鳳里20鄰天泉二街22巷1號1樓",
    "location": { "lat": 25.025288, "lng": 121.4149613 }
  },
  {
    "name": "新北市私立晨光幼兒園",
    "address": "[242]新北市新莊區合鳳里17鄰雙鳳路90巷3弄5號",
    "location": { "lat": 25.0284802, "lng": 121.4145827 }
  },
  {
    "name": "新北市私立永錡裕民幼兒園",
    "address": "[242]新北市新莊區龍鳳里6鄰龍安路67號1~3樓",
    "location": { "lat": 25.0215661, "lng": 121.4156235 }
  },
  {
    "name": "新北市私立健群幼兒園",
    "address": "[242]新北市新莊區龍鳳里25鄰龍安路78號2樓,80號1,2樓",
    "location": { "lat": 25.0206169, "lng": 121.417292 }
  },
  {
    "name": "新北市私立青園幼兒園",
    "address": "[242]新北市新莊區中華里8鄰中港路338之1號1樓，中安街5巷21號2樓",
    "location": { "lat": 25.0434353, "lng": 121.4536352 }
  },
  {
    "name": "新北市私立吉尼爾幼兒園",
    "address": "[242]新北市新莊區中隆里18鄰中華路2段159號1、2樓",
    "location": { "lat": 25.0516655, "lng": 121.4526387 }
  },
  {
    "name": "新北市私立格登幼兒園",
    "address": "[242]新北市新莊區中原里23鄰中信街109號1,2樓，111號1樓",
    "location": { "lat": 25.0539384, "lng": 121.4477499 }
  },
  {
    "name": "新北市私立育誠幼兒園",
    "address": "[242]新北市新莊區中原里12鄰中榮街56巷13弄2、6、8號1樓，中原里11鄰中港路中慶巷39、41號1樓",
    "location": { "lat": 25.0535905, "lng": 121.4488054 }
  },
  {
    "name": "新北市私立育誠中榮幼兒園",
    "address": "[242]新北市新莊區中原里13鄰中榮街56巷13弄1號1樓、中原里14鄰中榮街9號1樓",
    "location": { "lat": 25.0527128, "lng": 121.4509515 }
  },
  {
    "name": "新北市私立悠幼幼兒園",
    "address": "[242]新北市新莊區中信里4鄰中信街68號2樓之1(1、2樓)、68號(2樓共同使用部分)",
    "location": { "lat": 25.0519589, "lng": 121.448654 }
  },
  {
    "name": "新北市私立新榮富新莊幼兒園",
    "address": "[242]新北市新莊區中信里13鄰中和街204巷1、3號,218巷2、6號,中信里12鄰中和街1、3、5、7、11號",
    "location": { "lat": 25.0503533, "lng": 121.4483667 }
  },
  {
    "name": "新北市私立僑治亞幼兒園",
    "address": "[242]新北市新莊區中原里6鄰中港路629號1樓",
    "location": { "lat": 25.054008, "lng": 121.450892 }
  },
  {
    "name": "新北市私立及人幼兒園",
    "address": "[242]新北市新莊區中宏里5鄰中誠街118巷9號2樓及11號1、2樓",
    "location": { "lat": 25.0479046, "lng": 121.449179 }
  },
  {
    "name": "新北市私立新榮富幼兒園",
    "address": "[242]新北市新莊區中信里13鄰中和街218巷1號1樓",
    "location": { "lat": 25.0509539, "lng": 121.4483578 }
  },
  {
    "name": "新北市私立思源幼兒園",
    "address": "[242]新北市新莊區仁義里9鄰思源路287巷1弄88號",
    "location": { "lat": 25.04705, "lng": 121.4589249 }
  },
  {
    "name": "新北市私立奇異鳥幼兒園",
    "address": "[242]新北市新莊區四維里2鄰四維路19號3樓",
    "location": { "lat": 25.024205, "lng": 121.423618 }
  },
  {
    "name": "新北市私立尼爾生幼兒園",
    "address": "[242]新北市新莊區立基里6鄰中平路81巷4號1樓、2樓",
    "location": { "lat": 25.045439, "lng": 121.444486 }
  },
  {
    "name": "新北市私立和智幼兒園",
    "address": "[242]新北市新莊區昌平里10鄰新莊市昌平街71巷20號1樓、22號1樓",
    "location": { "lat": 25.053899, "lng": 121.4535651 }
  },
  {
    "name": "新北市私立昌平幼兒園",
    "address": "[242]新北市新莊區昌平里8鄰昌平街200號",
    "location": { "lat": 25.055817, "lng": 121.4557656 }
  },
  {
    "name": "新北市私立吉的堡英勝幼兒園",
    "address": "[242]新北市新莊區昌平里1鄰富貴路88號1、2、3樓",
    "location": { "lat": 25.0574684, "lng": 121.4567222 }
  },
  {
    "name": "新北市私立凱達格蘭幼兒園",
    "address": "[242]新北市新莊區昌明里10鄰昌明街32號1樓及地下室（部分使用）、36號1樓及地下室（部分使用）",
    "location": { "lat": 25.052453, "lng": 121.456671 }
  },
  {
    "name": "新北市私立傑恩幼兒園",
    "address": "[242]新北市新莊區萬安里1鄰富國路102號2樓",
    "location": { "lat": 25.0253056, "lng": 121.4214902 }
  },
  {
    "name": "新北市私立意秋幼兒園",
    "address": "[242]新北市新莊區福營里9鄰後港一路192號1,2,3樓",
    "location": { "lat": 25.027923, "lng": 121.432619 }
  },
  {
    "name": "新北市私立杜克幼兒園",
    "address": "[242]新北市新莊區後德里2鄰建福路58巷2號、4號",
    "location": { "lat": 25.027381, "lng": 121.426404 }
  },
  {
    "name": "新北市私立惠文小熊森林幼兒園",
    "address": "[242]新北市新莊區建安里24鄰建安街9巷7號1樓",
    "location": { "lat": 25.026831, "lng": 121.42921 }
  },
  {
    "name": "新北市私立惠文領袖幼兒園",
    "address": "[242]新北市新莊區建安里12鄰民安路207巷24號1、2、3樓",
    "location": { "lat": 25.0233552, "lng": 121.4274779 }
  },
  {
    "name": "新北市私立楷模幼兒園",
    "address": "[242]新北市新莊區建安里4鄰民安路177號2樓",
    "location": { "lat": 25.0231567, "lng": 121.4258723 }
  },
  {
    "name": "新北市私立名欣八德幼兒園",
    "address": "[242]新北市新莊區成德里9鄰八德街109號1樓、109之1號2樓",
    "location": { "lat": 25.0210552, "lng": 121.4242018 }
  },
  {
    "name": "新北市私立巧依斯幼兒園",
    "address": "[242]新北市新莊區福興里8鄰五工三路78巷23號1樓、23之1號1樓",
    "location": { "lat": 25.0659907, "lng": 121.4597551 }
  },
  {
    "name": "新北市私立喬聖幼兒園",
    "address": "[242]新北市新莊區昌信里17鄰中原路135號1樓、137號2樓之1",
    "location": { "lat": 25.0542333, "lng": 121.4548591 }
  },
  {
    "name": "新北市私立大鵬鳥幼兒園",
    "address": "[242]新北市新莊區昌信里17鄰中原路105號1樓、2樓之3、2樓之5",
    "location": { "lat": 25.0541376, "lng": 121.4555717 }
  },
  {
    "name": "新北市私立吉米貝爾幼兒園",
    "address": "[242]新北市新莊區昌隆里6鄰昌平街31巷21號2樓",
    "location": { "lat": 25.0518493, "lng": 121.4538629 }
  },
  {
    "name": "新北市私立勁寶兒晨星園幼兒園",
    "address": "[242]新北市新莊區昌隆里2鄰昌隆街5號2樓、7號1、2樓、9號2樓",
    "location": { "lat": 25.0510239, "lng": 121.4538999 }
  },
  {
    "name": "新北市私立何嘉仁幼兒園",
    "address": "[242]新北市新莊區中平里5鄰中和街155巷24弄26號1樓",
    "location": { "lat": 25.050813, "lng": 121.446728 }
  },
  {
    "name": "新北市私立夏恩昌隆幼兒園",
    "address": "[242]新北市新莊區昌信里17鄰中原路117號2樓之1、2樓之2",
    "location": { "lat": 25.054218, "lng": 121.4554353 }
  },
  {
    "name": "新北市私立榮欣幼兒園",
    "address": "[242]新北市新莊區中平里7鄰中和街191巷47號1樓、51號1樓",
    "location": { "lat": 25.050925, "lng": 121.447355 }
  },
  {
    "name": "新北市私立慷乃兒幼兒園",
    "address": "[242]新北市新莊區立廷里4鄰中平路178號2樓、182號1樓",
    "location": { "lat": 25.047835, "lng": 121.444949 }
  },
  {
    "name": "新北市私立吉晟幼兒園",
    "address": "[242]新北市新莊區立廷里16鄰中平路385號1樓",
    "location": { "lat": 25.0535488, "lng": 121.4438365 }
  },
  {
    "name": "新北市私立民安幼兒園",
    "address": "[242]新北市新莊區光正里1鄰民安西路137號2樓及龍安路456號2樓",
    "location": { "lat": 25.0172577, "lng": 121.4264349 }
  },
  {
    "name": "新北市私立劍聲幼兒園",
    "address": "[231]新北市新店區國豐里4鄰明德路65巷3號、5號、7號及9號",
    "location": { "lat": 24.9767353, "lng": 121.5412692 }
  },
  {
    "name": "新北市私立榮富幼兒園",
    "address": "[242]新北市新莊區中平里5鄰中和街155巷24弄26號2,3樓",
    "location": { "lat": 25.050813, "lng": 121.446728 }
  },
  {
    "name": "新北市私立俏媽咪幼兒園",
    "address": "[231]新北市新店區明德里5鄰民族路55號",
    "location": { "lat": 24.978423, "lng": 121.540107 }
  },
  {
    "name": "新北市私立嘉瑄幼兒園",
    "address": "[231]新北市新店區大豐里19鄰二十張路111號1、2樓",
    "location": { "lat": 24.979576, "lng": 121.53641 }
  },
  {
    "name": "新北市私立心象園幼兒園",
    "address": "[231]新北市新店區大豐里17鄰自立街13號1樓",
    "location": { "lat": 24.9791579, "lng": 121.537801 }
  },
  {
    "name": "新北市私立樂童幼兒園",
    "address": "[231]新北市新店區大同里16鄰大豐路16巷9號、11號1樓",
    "location": { "lat": 24.9806336, "lng": 121.5407599 }
  },
  {
    "name": "新北市私立巨耀幼兒園",
    "address": "[231]新北市新店區大豐里5鄰大豐路68巷1號1樓、2樓及70號1樓、2樓",
    "location": { "lat": 24.9796108, "lng": 121.5391575 }
  },
  {
    "name": "新北市私立小天才幼兒園",
    "address": "[231]新北市新店區寶安里8鄰文化路73巷8、10號1樓",
    "location": { "lat": 24.982701, "lng": 121.544401 }
  },
  {
    "name": "新北市私立三民幼兒園",
    "address": "[231]新北市新店區寶安里34鄰民權路11巷3號",
    "location": { "lat": 24.982652, "lng": 121.542292 }
  },
  {
    "name": "新北市私立菲力復興幼兒園",
    "address": "[231]新北市新店區信義里1鄰寶元路一段15巷9號1-2樓、11號1-2樓",
    "location": { "lat": 24.987102, "lng": 121.5417547 }
  },
  {
    "name": "新北市私立陽光天使幼兒園",
    "address": "[231]新北市新店區大鵬里4鄰中正路700巷26號1樓",
    "location": { "lat": 24.9913801, "lng": 121.5346797 }
  },
  {
    "name": "康橋學校財團法人新北市康橋高級中學附屬新北市私立康橋幼兒園",
    "address": "[231]新北市新店區下城里3鄰頂城五街80號",
    "location": { "lat": 24.9536892, "lng": 121.5172461 }
  },
  {
    "name": "新北市私立安馨新店幼兒園",
    "address": "[231]新北市新店區柴埕里19鄰安和路2段35號1樓、37號1、2樓",
    "location": { "lat": 24.9679021, "lng": 121.5180076 }
  },
  {
    "name": "新北市私立碧安幼兒園",
    "address": "[231]新北市新店區柴埕里24鄰光華街20.22號",
    "location": { "lat": 24.9693593, "lng": 121.5169266 }
  },
  {
    "name": "新北市私立嘉慶幼兒園",
    "address": "[231]新北市新店區公崙里14鄰安康路2段136號",
    "location": { "lat": 24.9621215, "lng": 121.512463 }
  },
  {
    "name": "新北市私立漢華幼兒園",
    "address": "[231]新北市新店區公崙里26鄰安忠路57巷26弄29號、31號1樓",
    "location": { "lat": 24.958046, "lng": 121.51238 }
  },
  {
    "name": "新北市私立芯品幼兒園",
    "address": "[231]新北市新店區公崙里19鄰安康路2段91巷9號1樓",
    "location": { "lat": 24.9627739, "lng": 121.5132657 }
  },
  {
    "name": "新北市私立景文幼兒園",
    "address": "[231]新北市新店區德安里7鄰安德街120巷16號1、2樓",
    "location": { "lat": 24.9606621, "lng": 121.5090147 }
  },
  {
    "name": "新北市私立禾力幼兒園",
    "address": "[231]新北市新店區公崙里15鄰安康路2段142巷14號1、2樓",
    "location": { "lat": 24.9617536, "lng": 121.5121593 }
  },
  {
    "name": "新北市私立林肯幼兒園",
    "address": "[231]新北市新店區玫瑰里1鄰玫瑰路29號1、2樓及31號1、2樓",
    "location": { "lat": 24.9505734, "lng": 121.4946917 }
  },
  {
    "name": "新北市私立芯琦幼兒園",
    "address": "[231]新北市新店區玫瑰里22鄰如意街61號1樓、63號1-2樓",
    "location": { "lat": 24.9472615, "lng": 121.4937364 }
  },
  {
    "name": "新北市私立寶媽媽幼兒園",
    "address": "[231]新北市新店區日興里2鄰安康路三段355巷40號1樓、42號3樓",
    "location": { "lat": 24.9490999, "lng": 121.484863 }
  },
  {
    "name": "新北市私立通泉草幼兒園",
    "address": "[231]新北市新店區粗坑里11鄰花園一路一段3號1、2樓",
    "location": { "lat": 24.9329109, "lng": 121.5514739 }
  },
  {
    "name": "新北市私立道欣幼兒園",
    "address": "[231]新北市新店區玫瑰里24鄰玫瑰路58巷33號1樓",
    "location": { "lat": 24.94671, "lng": 121.493844 }
  },
  {
    "name": "新北市私立方圓幼兒園",
    "address": "[231]新北市新店區國校里3鄰北宜路一段86巷8號1樓2樓",
    "location": { "lat": 24.9553839, "lng": 121.538682 }
  },
  {
    "name": "新北市私立三之三幼兒園",
    "address": "[231]新北市新店區文中里1鄰北宜路1段35、37號2樓",
    "location": { "lat": 24.9683259, "lng": 121.5479367 }
  },
  {
    "name": "新北市私立炫媽咪幼兒園",
    "address": "[231]新北市新店區中興里9鄰中興路一段203號1、2樓",
    "location": { "lat": 24.9655465, "lng": 121.543508 }
  },
  {
    "name": "新北市私立樂韻幼兒園",
    "address": "[231]新北市新店區中興里9鄰中興路1段171、173號1樓",
    "location": { "lat": 24.9780814, "lng": 121.5453247 }
  },
  {
    "name": "新北市私立新乖乖幼兒園",
    "address": "[231]新北市新店區青潭里8鄰北宜路二段56巷3弄2號1樓、5弄1號1樓",
    "location": { "lat": 24.9508074, "lng": 121.5493383 }
  },
  {
    "name": "新北市私立童心圓幼兒園",
    "address": "[231]新北市新店區文明里7鄰中興路一段101號1樓",
    "location": { "lat": 24.962432, "lng": 121.540975 }
  },
  {
    "name": "新北市私立李氏姐妹幼兒園",
    "address": "[231]新北市新店區新德里3鄰中華路5號、9號2樓、9號2樓之1",
    "location": { "lat": 24.967321, "lng": 121.540735 }
  },
  {
    "name": "新北市私立佳恩幼兒園",
    "address": "[231]新北市新店區張北里21鄰德正街27巷29弄8號",
    "location": { "lat": 24.971786, "lng": 121.5459919 }
  },
  {
    "name": "新北市私立菲力中興幼兒園",
    "address": "[231]新北市新店區五?里14鄰中興路1段266之1號、266之3號2樓",
    "location": { "lat": 24.9767887, "lng": 121.5460989 }
  },
  {
    "name": "新北市私立惠國幼兒園",
    "address": "[231]新北市新店區五?里15鄰中興路一段268巷12號",
    "location": { "lat": 24.9672969, "lng": 121.54559 }
  },
  {
    "name": "新北市私立聯華幼兒園",
    "address": "[231]新北市新店區新安里6鄰北新路2段186號1-2樓",
    "location": { "lat": 24.9763591, "lng": 121.5430619 }
  },
  {
    "name": "財團法人天主教新北市私立育新幼兒園",
    "address": "[231]新北市新店區中正里16鄰三民路19號",
    "location": { "lat": 24.9718939, "lng": 121.539703 }
  },
  {
    "name": "新北市私立積木幼兒園",
    "address": "[231]新北市新店區中華里9鄰三民路31號1~2樓",
    "location": { "lat": 24.9704442, "lng": 121.5376648 }
  },
  {
    "name": "新北市私立佳欣幼兒園",
    "address": "[231]新北市新店區仁愛里4鄰中正路128巷9弄1號",
    "location": { "lat": 24.9718113, "lng": 121.5423868 }
  },
  {
    "name": "新北市私立佳欣中正幼兒園",
    "address": "[231]新北市新店區仁愛里4鄰中正路128巷7弄2號1樓，4號1樓",
    "location": { "lat": 24.971358, "lng": 121.54215 }
  },
  {
    "name": "新北市私立佳欣北新幼兒園",
    "address": "[231]新北市新店區仁愛里5鄰北新路二段29巷1弄1號1,2樓",
    "location": { "lat": 24.972386, "lng": 121.542356 }
  },
  {
    "name": "新北市私立菲力幼兒園",
    "address": "[231]新北市新店區百忍里12鄰平等街48巷17、19號",
    "location": { "lat": 24.9733069, "lng": 121.5357672 }
  },
  {
    "name": "財團法人耕莘健康管理專科學校附設新北市私立實驗幼兒園",
    "address": "[231]新北市新店區百和里14鄰民族路112號1、2樓",
    "location": { "lat": 24.9770572, "lng": 121.5368906 }
  },
  {
    "name": "新北市私立新中幼兒園",
    "address": "[231]新北市新店區百和里14鄰中正路360號2樓",
    "location": { "lat": 24.9759171, "lng": 121.5355399 }
  },
  {
    "name": "新北市私立小綠芽幼兒園",
    "address": "[231]新北市新店區百和里17鄰中正路382巷1號1樓",
    "location": { "lat": 24.9775329, "lng": 121.534972 }
  },
  {
    "name": "新北市私立培英幼兒園",
    "address": "[231]新北市新店區百福里3鄰三民路75巷12號、14號",
    "location": { "lat": 24.97139, "lng": 121.5361049 }
  },
  {
    "name": "新北市私立太平洋幼兒園",
    "address": "[231]新北市新店區福民里5鄰福園街17巷1號、1-1號、3號1樓",
    "location": { "lat": 24.9725997, "lng": 121.5330325 }
  },
  {
    "name": "新北市私立欣橋幼兒園",
    "address": "[231]新北市新店區百和里11鄰民族路163號1、2樓",
    "location": { "lat": 24.9766241, "lng": 121.5376625 }
  },
  {
    "name": "新北市私立尼斯堡幼兒園",
    "address": "[231]新北市新店區中央里1鄰中央一街20號1樓",
    "location": { "lat": 24.97301, "lng": 121.528364 }
  },
  {
    "name": "新北市私立向日園幼兒園",
    "address": "[231]新北市新店區中央里11鄰中央五街84號1樓",
    "location": { "lat": 24.9760496, "lng": 121.526409 }
  },
  {
    "name": "新北市私立榮恩幼兒園",
    "address": "[231]新北市新店區吉祥里6鄰吉祥街2巷1、3號",
    "location": { "lat": 24.947625, "lng": 121.4968748 }
  },
  {
    "name": "新北市私立立大幼兒園",
    "address": "[231]新北市新店區寶福里2鄰寶中路76號2樓",
    "location": { "lat": 24.9804605, "lng": 121.5481587 }
  },
  {
    "name": "新北市私立水星幼兒園",
    "address": "[231]新北市新店區寶福里15鄰寶興路42巷25號1樓",
    "location": { "lat": 24.972065, "lng": 121.548135 }
  },
  {
    "name": "新北市私立三愛幼兒園",
    "address": "[231]新北市新店區安和里5鄰安民街269巷14、16號",
    "location": { "lat": 24.9730057, "lng": 121.5170842 }
  },
  {
    "name": "康軒文教事業股份有限公司附設新北市私立員工幼兒園",
    "address": "[231]新北市新店區寶福里21鄰中興路二段218巷11號3樓",
    "location": { "lat": 24.975109, "lng": 121.548906 }
  },
  {
    "name": "新北市私立容石園幼兒園",
    "address": "[231]新北市新店區建國里10鄰建安街31號1樓",
    "location": { "lat": 24.9755741, "lng": 121.5390841 }
  },
  {
    "name": "新北市私立莘莘幼兒園",
    "address": "[231]新北市新店區建國里15鄰中正路284巷4弄3號1樓",
    "location": { "lat": 24.9747981, "lng": 121.5388203 }
  },
  {
    "name": "新北市私立幼幼立大幼兒園",
    "address": "[231]新北市新店區寶福里2鄰寶中路90號1樓",
    "location": { "lat": 24.9801825, "lng": 121.5486756 }
  },
  {
    "name": "財團法人中華民國佛教慈濟慈善事業基金會附設新北市私立臺北大愛幼兒園",
    "address": "[231]新北市新店區復興里13鄰建國路279號1樓",
    "location": { "lat": 24.9846663, "lng": 121.5364388 }
  },
  {
    "name": "新北市私立偉智幼兒園",
    "address": "[231]新北市新店區美城里7鄰永業路81巷25號1、2樓",
    "location": { "lat": 24.94876, "lng": 121.531034 }
  },
  {
    "name": "新北市私立雅格幼兒園",
    "address": "[231]新北市新店區安昌里1鄰安德街40號1、2樓",
    "location": { "lat": 24.9627048, "lng": 121.5114353 }
  },
  {
    "name": "新北市私立凱撒琳幼兒園",
    "address": "[231]新北市新店區安昌里2鄰安德街57巷9號1樓、11號1樓、13號1樓、15號1樓、17號1樓",
    "location": { "lat": 24.961941, "lng": 121.511493 }
  },
  {
    "name": "新北市私立安康幼兒園",
    "address": "[231]新北市新店區安昌里12鄰安康路2段168號1樓、2樓、3樓",
    "location": { "lat": 24.9607638, "lng": 121.5119256 }
  },
  {
    "name": "新北市私立好好幼兒園",
    "address": "[231]新北市新店區達觀里1鄰達觀路6號1,2樓",
    "location": { "lat": 24.9426905, "lng": 121.5051952 }
  },
  {
    "name": "新北市私立建丞幼兒園",
    "address": "[238]新北市樹林區三福里31鄰三寶街6號1~2樓、8號1~2樓",
    "location": { "lat": 25.0159213, "lng": 121.4063469 }
  },
  {
    "name": "新北市私立宏美幼兒園",
    "address": "[231]新北市新店區永平里11鄰安和路3段87巷2號1樓",
    "location": { "lat": 24.9838972, "lng": 121.5176865 }
  },
  {
    "name": "新北市私立冠軍幼兒園",
    "address": "[238]新北市樹林區三福里27鄰忠愛街15號1樓",
    "location": { "lat": 25.015749, "lng": 121.408227 }
  },
  {
    "name": "新北市私立劍聲樹林幼兒園",
    "address": "[238]新北市樹林區三福里28鄰三福街47巷16、18、20、22號1樓",
    "location": { "lat": 25.0152031, "lng": 121.4076378 }
  },
  {
    "name": "新北市私立政達幼兒園",
    "address": "[238]新北市樹林區三福里32鄰三福街56巷5號1,2樓",
    "location": { "lat": 25.016561, "lng": 121.405261 }
  },
  {
    "name": "新北市私立雅立福幼兒園",
    "address": "[238]新北市樹林區三福里30鄰三福街85巷2-1號,2-2號1樓",
    "location": { "lat": 25.016275, "lng": 121.407238 }
  },
  {
    "name": "新北市私立文林幼兒園",
    "address": "[238]新北市樹林區保安里18鄰千歲街46巷12、14號1樓",
    "location": { "lat": 24.9964819, "lng": 121.4264638 }
  },
  {
    "name": "新北市私立鑫立群幼兒園",
    "address": "[238]新北市樹林區保安里22鄰千歲街104巷18.22號",
    "location": { "lat": 24.997933, "lng": 121.42704 }
  },
  {
    "name": "新北市私立育全保安幼兒園",
    "address": "[238]新北市樹林區潭底里3鄰保安街一段345號1,2,3樓",
    "location": { "lat": 24.9986719, "lng": 121.416943 }
  },
  {
    "name": "新北市私立新力幼兒園",
    "address": "[238]新北市樹林區樹德里9鄰長壽街19巷3.5.7.9號1樓",
    "location": { "lat": 24.993785, "lng": 121.421778 }
  },
  {
    "name": "新北市私立喬中幼兒園",
    "address": "[238]新北市樹林區樹西里32鄰復興路198號2樓",
    "location": { "lat": 24.990956, "lng": 121.419796 }
  },
  {
    "name": "財團法人天主教會台北教區附設新北市私立聖言幼兒園",
    "address": "[238]新北市樹林區樹西里7鄰中山路一段154號1樓至3樓",
    "location": { "lat": 24.9896615, "lng": 121.4222073 }
  },
  {
    "name": "財團法人新北市私立張方大慈善事業基金會附設新北市私立士箱幼兒園",
    "address": "[238]新北市樹林區樹人里11鄰啟智街106號1-2樓",
    "location": { "lat": 24.9882242, "lng": 121.4167159 }
  },
  {
    "name": "新北市私立育安幼兒園",
    "address": "[238]新北市樹林區和平里20鄰中華路12巷11號",
    "location": { "lat": 24.9834245, "lng": 121.4201912 }
  },
  {
    "name": "新北市私立育安園幼兒園",
    "address": "[238]新北市樹林區和平里20鄰中華路12巷13號1樓",
    "location": { "lat": 24.9835249, "lng": 121.4204953 }
  },
  {
    "name": "新北市私立澄品幼兒園",
    "address": "[238]新北市樹林區和平里17鄰仁愛街12巷4、6號1~2樓",
    "location": { "lat": 24.9814532, "lng": 121.4222099 }
  },
  {
    "name": "新北市私立名人幼兒園",
    "address": "[238]新北市樹林區彭福里22鄰國凱街136巷48號1樓",
    "location": { "lat": 24.9789987, "lng": 121.4239051 }
  },
  {
    "name": "新北市私立快樂地幼兒園",
    "address": "[238]新北市樹林區彭福里4鄰八德街118號1、2、3樓及120號1樓",
    "location": { "lat": 24.9795984, "lng": 121.4210735 }
  },
  {
    "name": "新北市私立樹林匯文幼兒園",
    "address": "[238]新北市樹林區和平里20鄰太平路33巷10號1樓",
    "location": { "lat": 24.983381, "lng": 121.419924 }
  },
  {
    "name": "新北市私立博智幼兒園",
    "address": "[238]新北市樹林區東陽里4鄰鎮前街367巷5號、5-1號、5-2號",
    "location": { "lat": 24.983287, "lng": 121.416266 }
  },
  {
    "name": "新北市私立柏克萊幼兒園",
    "address": "[238]新北市樹林區東陽里13鄰東陽街59號1樓",
    "location": { "lat": 24.9806745, "lng": 121.4137265 }
  },
  {
    "name": "新北市私立葳瑪藝術幼兒園",
    "address": "[238]新北市樹林區南園里22鄰學士路20號",
    "location": { "lat": 24.9475313, "lng": 121.3825879 }
  },
  {
    "name": "新北市私立育智幼兒園",
    "address": "[238]新北市樹林區東昇里25鄰大安路577號1樓",
    "location": { "lat": 24.9835037, "lng": 121.4119992 }
  },
  {
    "name": "新北市私立北大迦美幼兒園",
    "address": "[238]新北市樹林區柑園里13鄰大成路365號",
    "location": { "lat": 24.9497358, "lng": 121.3813593 }
  },
  {
    "name": "新北市私立立群幼兒園",
    "address": "[238]新北市樹林區圳福里13鄰千歲街106號及108號1、2樓",
    "location": { "lat": 24.9982282, "lng": 121.426843 }
  },
  {
    "name": "新北市私立北大心世紀幼兒園",
    "address": "[238]新北市樹林區柑園里8鄰大成路373號1、2、3樓",
    "location": { "lat": 24.9499709, "lng": 121.3813379 }
  },
  {
    "name": "新北市私立奇異鳥米蘭幼兒園",
    "address": "[238]新北市樹林區樹福里10鄰長壽街15之5號2樓、15之6號1樓、15之7號1、2樓",
    "location": { "lat": 24.9933847, "lng": 121.42335 }
  },
  {
    "name": "新北市私立哈佛幼兒園",
    "address": "[238]新北市樹林區彭興里21鄰太平路221號1-2樓、223號1樓",
    "location": { "lat": 24.9773223, "lng": 121.4186513 }
  },
  {
    "name": "財團法人新北市樹林基督長老教會附設新北市私立牧人幼兒園",
    "address": "[238]新北市樹林區樹福里14鄰中山路一段2號1、2、3樓",
    "location": { "lat": 24.9943966, "lng": 121.4240861 }
  },
  {
    "name": "新北市私立橡樹園幼兒園",
    "address": "[238]新北市樹林區彭興里33鄰國凱街72巷17號1樓、八德街152號1樓",
    "location": { "lat": 24.9783534, "lng": 121.4212717 }
  },
  {
    "name": "新北市私立富雅幼兒園",
    "address": "[238]新北市樹林區中山里18鄰地政街17號1、2、3樓",
    "location": { "lat": 24.9719489, "lng": 121.3943164 }
  },
  {
    "name": "新北市私立企鵝家族幼兒園",
    "address": "[238]新北市樹林區育英里17鄰文化街22,24號1,2,3樓",
    "location": { "lat": 24.9876607, "lng": 121.4195661 }
  },
  {
    "name": "新北市私立名欣幼兒園",
    "address": "[238]新北市樹林區圳民里1鄰俊英街238之6號1樓",
    "location": { "lat": 25.0105215, "lng": 121.424868 }
  },
  {
    "name": "新北市私立迴龍幼兒園",
    "address": "[238]新北市樹林區三龍里15鄰三俊街35號1樓",
    "location": { "lat": 25.015718, "lng": 121.412225 }
  },
  {
    "name": "新北市私立樹林育林幼兒園",
    "address": "[238]新北市樹林區育英里8鄰文化街28號1、2樓",
    "location": { "lat": 24.9878866, "lng": 121.4191397 }
  },
  {
    "name": "新北市私立宏修幼兒園",
    "address": "[239]新北市鶯歌區東鶯里3鄰文化路145巷10號1樓",
    "location": { "lat": 24.953743, "lng": 121.356757 }
  },
  {
    "name": "新北市私立山姆幼兒園",
    "address": "[239]新北市鶯歌區中鶯里8鄰仁愛路66號1樓、2樓、3樓(含地下1樓)",
    "location": { "lat": 24.9547213, "lng": 121.3539063 }
  },
  {
    "name": "新北市私立愛迪生幼兒園",
    "address": "[239]新北市鶯歌區永昌里18鄰建國路556號1、2、3樓",
    "location": { "lat": 24.9506813, "lng": 121.3381238 }
  },
  {
    "name": "新北市私立精英昌福幼兒園",
    "address": "[239]新北市鶯歌區永昌里4鄰永明街22號",
    "location": { "lat": 24.9558709, "lng": 121.3393858 }
  },
  {
    "name": "新北市私立學詮幼兒園",
    "address": "[239]新北市鶯歌區永吉里1鄰德昌街131號1、2樓",
    "location": { "lat": 24.959045, "lng": 121.332739 }
  },
  {
    "name": "新北市私立宏鶯幼兒園",
    "address": "[239]新北市鶯歌區永昌里10鄰鶯桃路95巷16、18號1、2樓",
    "location": { "lat": 24.953848, "lng": 121.3385921 }
  },
  {
    "name": "新北市私立長青幼兒園",
    "address": "[239]新北市鶯歌區永吉里16鄰鶯桃路188號",
    "location": { "lat": 24.9587245, "lng": 121.3378115 }
  },
  {
    "name": "新北市私立及仁幼兒園",
    "address": "[239]新北市鶯歌區鳳福里3鄰鳳吉一街172號1、2樓",
    "location": { "lat": 24.9756874, "lng": 121.3285781 }
  },
  {
    "name": "新北市私立育全鶯歌幼兒園",
    "address": "[239]新北市鶯歌區二橋里1鄰二甲路25號1,2樓",
    "location": { "lat": 24.9403165, "lng": 121.3386917 }
  },
  {
    "name": "新北市私立朱徠德幼兒園",
    "address": "[239]新北市鶯歌區鳳祥里7鄰鶯桃路301號1、2樓",
    "location": { "lat": 24.9608544, "lng": 121.333634 }
  },
  {
    "name": "新北市私立康乃爾幼兒園",
    "address": "[239]新北市鶯歌區建國里16鄰育英街98-1號1樓",
    "location": { "lat": 24.951247, "lng": 121.347461 }
  },
  {
    "name": "新北市私立東北藝園幼兒園",
    "address": "[237]新北市三峽區八張里8鄰民族街28巷9弄12、16、20號各1樓",
    "location": { "lat": 24.930888, "lng": 121.368558 }
  },
  {
    "name": "新北市私立鶯歌芝麻村幼兒園",
    "address": "[239]新北市鶯歌區建國里25鄰國華路103、103-1、105、107及109號1樓",
    "location": { "lat": 24.9560954, "lng": 121.3429288 }
  },
  {
    "name": "新北市私立精英中園幼兒園",
    "address": "[237]新北市三峽區中埔里9鄰大同路222巷22弄2號1、2樓",
    "location": { "lat": 24.9269928, "lng": 121.3662919 }
  },
  {
    "name": "新北市私立朝陽幼兒園",
    "address": "[237]新北市三峽區永?里24鄰復興路132巷7號1、2樓",
    "location": { "lat": 24.9391205, "lng": 121.3727739 }
  },
  {
    "name": "新北市私立聖母幼兒園",
    "address": "[237]新北市三峽區中埔里3鄰中園街71-1號",
    "location": { "lat": 24.9254558, "lng": 121.3681855 }
  },
  {
    "name": "新北市私立金祥慈幼兒園",
    "address": "[237]新北市三峽區永?里19鄰和平街36巷7弄1號1.2樓",
    "location": { "lat": 24.937213, "lng": 121.3707807 }
  },
  {
    "name": "新北市私立啟育幼兒園",
    "address": "[237]新北市三峽區永?里1鄰民生街59號1、2、3樓及民生街27巷14、16、18、20、22號各1樓",
    "location": { "lat": 24.9361209, "lng": 121.375338 }
  },
  {
    "name": "新北市私立北大幼兒園",
    "address": "[237]新北市三峽區永?里20鄰復興路177巷8號1樓、10號1、2樓",
    "location": { "lat": 24.937831, "lng": 121.369914 }
  },
  {
    "name": "新北市三峽區農會附設新北市私立幼兒園",
    "address": "[237]新北市三峽區礁溪里8鄰長泰街98巷5號2樓",
    "location": { "lat": 24.9340232, "lng": 121.3758202 }
  },
  {
    "name": "新北市私立快樂靜思園幼兒園",
    "address": "[237]新北市三峽區礁溪里31鄰中華路15巷5號1樓(含夾層)、7號1樓(含夾層)",
    "location": { "lat": 24.931567, "lng": 121.373676 }
  },
  {
    "name": "新北市私立育全三峽幼兒園",
    "address": "[237]新北市三峽區礁溪里3鄰長泰街24號1樓、24之1號1樓、2樓、3樓",
    "location": { "lat": 24.9317439, "lng": 121.378931 }
  },
  {
    "name": "新北市私立佩思幼兒園",
    "address": "[237]新北市三峽區礁溪里33鄰中華路25號1樓",
    "location": { "lat": 24.931831, "lng": 121.3737345 }
  },
  {
    "name": "新北市私立文強幼兒園",
    "address": "[237]新北市三峽區鳶山里18鄰中山路257巷2號、4號1樓",
    "location": { "lat": 24.937101, "lng": 121.362336 }
  },
  {
    "name": "新北市私立文化幼兒園",
    "address": "[237]新北市三峽區鳶山里3鄰大勇路3巷1、3號",
    "location": { "lat": 24.937169, "lng": 121.368186 }
  },
  {
    "name": "新北市私立溫特爾幼兒園",
    "address": "[237]新北市三峽區龍埔里5鄰三樹路336號1、2、3樓",
    "location": { "lat": 24.9439381, "lng": 121.3822411 }
  },
  {
    "name": "新北市私立智文幼兒園",
    "address": "[237]新北市三峽區龍埔里24鄰大義路249號1、2樓",
    "location": { "lat": 24.9458912, "lng": 121.3771715 }
  },
  {
    "name": "新北市私立小樹苗幼兒園",
    "address": "[237]新北市三峽區龍埔里27鄰復興路80巷14弄1、5號",
    "location": { "lat": 24.9376909, "lng": 121.373552 }
  },
  {
    "name": "新北市私立小甜甜幼兒園",
    "address": "[237]新北市三峽區鳶山里10鄰中山路106巷17弄14號1、2樓",
    "location": { "lat": 24.9363791, "lng": 121.3657458 }
  },
  {
    "name": "新北市私立恆育幼兒園",
    "address": "[237]新北市三峽區溪東里1鄰橫溪路99巷76,78,80號",
    "location": { "lat": 24.9369264, "lng": 121.4004065 }
  },
  {
    "name": "新北市私立幼心園幼兒園",
    "address": "[237]新北市三峽區介壽里18鄰介壽路一段276巷108弄38號1、2樓",
    "location": { "lat": 24.9278085, "lng": 121.3791433 }
  },
  {
    "name": "新北市私立萱萱幼兒園",
    "address": "[237]新北市三峽區介壽里21鄰大同路1-5號1,2樓",
    "location": { "lat": 24.9294418, "lng": 121.3781662 }
  },
  {
    "name": "新北市私立佳兒幼兒園",
    "address": "[237]新北市三峽區安溪里4鄰中正路1段108巷30號1-2樓",
    "location": { "lat": 24.9303436, "lng": 121.3734211 }
  },
  {
    "name": "新北市私立童話村幼兒園",
    "address": "[237]新北市三峽區中正里23鄰光明路100之6號2樓",
    "location": { "lat": 24.9280838, "lng": 121.3757809 }
  },
  {
    "name": "新北市私立瑪莉亞蒙特梭利幼兒園",
    "address": "[237]新北市三峽區龍學里32鄰大德路493號1樓(含夾層)",
    "location": { "lat": 24.9484786, "lng": 121.3737628 }
  },
  {
    "name": "新北市私立山姆叔叔幼兒園",
    "address": "[237]新北市三峽區龍學里36鄰學勤路125號1.2樓",
    "location": { "lat": 24.9468149, "lng": 121.3754352 }
  },
  {
    "name": "新北市私立東橙幼兒園",
    "address": "[237]新北市三峽區龍學里6鄰大德路70號1、2樓及72號2樓",
    "location": { "lat": 24.9432429, "lng": 121.3772985 }
  },
  {
    "name": "新北市私立淡水新興幼兒園",
    "address": "[251]新北市淡水區新興里4鄰新興街43號1樓及夾層",
    "location": { "lat": 25.1799886, "lng": 121.4420699 }
  },
  {
    "name": "新北市私立娃娃國幼兒園",
    "address": "[237]新北市三峽區龍學里18鄰大義路239號",
    "location": { "lat": 24.9457827, "lng": 121.3769176 }
  },
  {
    "name": "新北市私立蘋果苑幼兒園",
    "address": "[251]新北市淡水區新興里7鄰新春街126巷9號1樓、2樓",
    "location": { "lat": 25.179721, "lng": 121.442144 }
  },
  {
    "name": "新北市私立松林幼兒園",
    "address": "[251]新北市淡水區崁頂里1鄰中山北路二段189巷100號1樓",
    "location": { "lat": 25.18568, "lng": 121.442098 }
  },
  {
    "name": "新北市私立皮諾幼兒園",
    "address": "[251]新北市淡水區新興里4鄰新興街29之2號1樓、31號1樓",
    "location": { "lat": 25.1799672, "lng": 121.4424272 }
  },
  {
    "name": "新北市私立愛家幼兒園",
    "address": "[251]新北市淡水區新興里3鄰新興街9號1樓、11號1樓、13號1樓",
    "location": { "lat": 25.1803865, "lng": 121.4436129 }
  },
  {
    "name": "新北市私立快樂小熊幼兒園",
    "address": "[251]新北市淡水區新興里16鄰中山北路1段247巷54號1樓、2樓及56號1樓、2樓",
    "location": { "lat": 25.1772627, "lng": 121.4434458 }
  },
  {
    "name": "新北市私立吉的堡北馨園幼兒園",
    "address": "[251]新北市淡水區水碓里15鄰北新路92號1樓、92號2樓、92號2樓之1",
    "location": { "lat": 25.1783777, "lng": 121.4469716 }
  },
  {
    "name": "新北市私立菁英幼兒園",
    "address": "[251]新北市淡水區水碓里11鄰大忠街75號2樓、77號2樓",
    "location": { "lat": 25.1773246, "lng": 121.4457565 }
  },
  {
    "name": "新北市私立淡水松柏幼兒園",
    "address": "[251]新北市淡水區新興里8鄰新春街172號1樓至2樓及180號2樓、2樓之1、2樓之2、2樓之3、2樓之7",
    "location": { "lat": 25.180981, "lng": 121.443152 }
  },
  {
    "name": "新北市私立萬甲田幼兒園",
    "address": "[251]新北市淡水區北投里2鄰新市一路3段101巷16弄1號1樓",
    "location": { "lat": 25.1840388, "lng": 121.4464258 }
  },
  {
    "name": "新北市私立育碩幼兒園",
    "address": "[251]新北市淡水區福德里2鄰自強路309之1號1樓、309號2樓",
    "location": { "lat": 25.1319997, "lng": 121.4625834 }
  },
  {
    "name": "新北市私立英格麗幼兒園",
    "address": "[251]新北市淡水區福德里2鄰自強路110號1、2樓",
    "location": { "lat": 25.1314124, "lng": 121.4617778 }
  },
  {
    "name": "新北市私立漢斯堡國際幼兒園",
    "address": "[251]新北市淡水區北投里2鄰商工路186巷17號1、2樓",
    "location": { "lat": 25.1873381, "lng": 121.4506116 }
  },
  {
    "name": "新北市私立快樂家族幼兒園",
    "address": "[251]新北市淡水區八勢里7鄰八勢一街40號1樓、2樓",
    "location": { "lat": 25.1553012, "lng": 121.4616641 }
  },
  {
    "name": "新北市私立紅樹林幼兒園",
    "address": "[251]新北市淡水區八勢里7鄰中正東路2段7號1樓",
    "location": { "lat": 25.1544227, "lng": 121.4596624 }
  },
  {
    "name": "新北市私立小親親幼兒園",
    "address": "[251]新北市淡水區民生里12鄰民生路124巷11弄3號1~2樓、5號1~2樓",
    "location": { "lat": 25.1380373, "lng": 121.4642396 }
  },
  {
    "name": "新北市私立歡樂寶貝熊幼兒園",
    "address": "[251]新北市淡水區民生里1鄰民權路73號1樓(門牌合併含73號1樓、75號2樓)",
    "location": { "lat": 25.138867, "lng": 121.4598678 }
  },
  {
    "name": "新北市私立?蒙幼兒園",
    "address": "[251]新北市淡水區協元里8鄰新生街90巷2號1樓、2之1號1~2樓",
    "location": { "lat": 25.1746333, "lng": 121.4396032 }
  },
  {
    "name": "台灣基督長老教會淡江學校財團法人新北市私立淡江高級中學附設新北市私立純德幼兒園",
    "address": "[251]新北市淡水區文化里13鄰真理街26號",
    "location": { "lat": 25.1749327, "lng": 121.4360059 }
  },
  {
    "name": "財團法人新北市私立一信幼兒園",
    "address": "[251]新北市淡水區油車里8鄰中正路一段63巷9號",
    "location": { "lat": 25.1771509, "lng": 121.4228348 }
  },
  {
    "name": "新北市私立國花幼兒園",
    "address": "[251]新北市淡水區新義里2鄰新生街51巷31弄5,7,9,11號",
    "location": { "lat": 25.176266, "lng": 121.4405359 }
  },
  {
    "name": "新北市私立臻寶園幼兒園",
    "address": "[251]新北市淡水區新義里13鄰大義街29巷7號1樓、9號1樓、11號1樓、13號1樓",
    "location": { "lat": 25.1780156, "lng": 121.4421075 }
  },
  {
    "name": "新北市私立悅慧幼兒園",
    "address": "[251]新北市淡水區新春里11鄰新春街10巷2號1至2樓、10巷1號1樓",
    "location": { "lat": 25.1811586, "lng": 121.4366528 }
  },
  {
    "name": "新北市私立萊恩得幼兒園",
    "address": "[251]新北市淡水區民權里12鄰民權路181巷7、9、11、13、15號1樓",
    "location": { "lat": 25.1344895, "lng": 121.4601327 }
  },
  {
    "name": "新北市私立普登幼兒園",
    "address": "[251]新北市淡水區新義里13鄰中山北路一段151號2樓",
    "location": { "lat": 25.1774869, "lng": 121.4430884 }
  },
  {
    "name": "新北市私立凱樂蒂幼兒園",
    "address": "[251]新北市淡水區民權里16鄰民權路187巷34、36號1樓",
    "location": { "lat": 25.1334783, "lng": 121.4603225 }
  },
  {
    "name": "新北市私立淡水啟文幼兒園",
    "address": "[251]新北市淡水區北新里10鄰北新路188號1、2樓",
    "location": { "lat": 25.178988, "lng": 121.449917 }
  },
  {
    "name": "新北市私立可爾威德幼兒園",
    "address": "[251]新北市淡水區幸福里18鄰中正東路35巷11號",
    "location": { "lat": 25.168796, "lng": 121.4464913 }
  },
  {
    "name": "新北市私立卓越幼兒園",
    "address": "[251]新北市淡水區學府里2鄰水源街1段157號3樓",
    "location": { "lat": 25.1721704, "lng": 121.4453833 }
  },
  {
    "name": "新北市私立溫斯頓幼兒園",
    "address": "[251]新北市淡水區民權里16鄰民權路187巷40號1樓",
    "location": { "lat": 25.1334999, "lng": 121.4608563 }
  },
  {
    "name": "新北市私立雨果幼兒園",
    "address": "[251]新北市淡水區幸福里11鄰水源街1段124號2樓",
    "location": { "lat": 25.1722097, "lng": 121.4445892 }
  },
  {
    "name": "新北市私立智晶幼兒園",
    "address": "[251]新北市淡水區學府里5鄰學府路113號2樓",
    "location": { "lat": 25.1725291, "lng": 121.4502043 }
  },
  {
    "name": "新北市私立博士兒幼兒園",
    "address": "[251]新北市淡水區大庄里6鄰沙崙路151巷12弄9號1樓",
    "location": { "lat": 25.184137, "lng": 121.423483 }
  },
  {
    "name": "新北市私立唯寶幼兒園",
    "address": "[251]新北市淡水區大庄里6鄰沙崙路131巷13弄2號1樓、131巷11號1樓",
    "location": { "lat": 25.183321, "lng": 121.4223207 }
  },
  {
    "name": "新北市私立華慶幼兒園",
    "address": "[221]新北市汐止區橋東里20鄰忠孝東路447號1~2樓、449號1~2樓",
    "location": { "lat": 25.072365, "lng": 121.665764 }
  },
  {
    "name": "新北市私立神奇小子幼兒園",
    "address": "[221]新北市汐止區橋東里32鄰建成路39號2樓之2",
    "location": { "lat": 25.0729131, "lng": 121.6631762 }
  },
  {
    "name": "新北市私立崇幼幼兒園",
    "address": "[221]新北市汐止區橋東里23鄰建成路28巷11號1樓、2樓",
    "location": { "lat": 25.072741, "lng": 121.6645975 }
  },
  {
    "name": "新北市私立向日葵幼兒園",
    "address": "[221]新北市汐止區秀峰里3鄰秀峰路89號1、2樓",
    "location": { "lat": 25.0639739, "lng": 121.660333 }
  },
  {
    "name": "新北市私立新豐幼兒園",
    "address": "[221]新北市汐止區新昌里15鄰新昌路18號1樓",
    "location": { "lat": 25.0674114, "lng": 121.6621149 }
  },
  {
    "name": "新北市私立吉的堡皇家幼兒園",
    "address": "[221]新北市汐止區復興里10鄰新台五路一段79號之3",
    "location": { "lat": 25.0616728, "lng": 121.645966 }
  },
  {
    "name": "新北市私立康華幼兒園",
    "address": "[221]新北市汐止區復興里7鄰龍安路38號2樓之1、2、3、4",
    "location": { "lat": 25.063694, "lng": 121.654601 }
  },
  {
    "name": "新北市私立汐止一二三幼兒園",
    "address": "[221]新北市汐止區復興里20鄰連興街46號2樓、48號1、2樓",
    "location": { "lat": 25.0632963, "lng": 121.6546136 }
  },
  {
    "name": "新北市私立新大華幼兒園",
    "address": "[221]新北市汐止區復興里23鄰龍安路179號1~2樓、181號1樓、183號1樓、185號1~2樓",
    "location": { "lat": 25.0628464, "lng": 121.6531242 }
  },
  {
    "name": "新北市私立榮光幼兒園",
    "address": "[221]新北市汐止區鄉長里12鄰長江街255巷3號1、2樓",
    "location": { "lat": 25.0795024, "lng": 121.663498 }
  },
  {
    "name": "新北市私立維格爾幼兒園",
    "address": "[221]新北市汐止區復興里2鄰新興路3號3樓之1",
    "location": { "lat": 25.06513, "lng": 121.656453 }
  },
  {
    "name": "新北市私立佳興幼兒園",
    "address": "[221]新北市汐止區茄苳里4鄰茄苳路225巷34號1樓",
    "location": { "lat": 25.0688055, "lng": 121.6710255 }
  },
  {
    "name": "新北市私立哈寶寶幼兒園",
    "address": "[221]新北市汐止區八連里5鄰建成路56巷27號2樓、2樓之1、2樓之2",
    "location": { "lat": 25.0730736, "lng": 121.6636576 }
  },
  {
    "name": "新北市汐止區農會附設新北市私立汐農幼兒園",
    "address": "[221]新北市汐止區江北里6鄰長江街39巷26號1樓、2樓",
    "location": { "lat": 25.072369, "lng": 121.655324 }
  },
  {
    "name": "新北市私立立強幼兒園",
    "address": "[221]新北市汐止區北峰里14鄰民族三街56號",
    "location": { "lat": 25.0697156, "lng": 121.6292702 }
  },
  {
    "name": "新北市私立曼哈頓幼兒園",
    "address": "[221]新北市汐止區北山里1鄰康寧街61巷1號1、2樓",
    "location": { "lat": 25.0667271, "lng": 121.6187371 }
  },
  {
    "name": "新北市私立立德幼兒園",
    "address": "[221]新北市汐止區樟樹里6鄰中興路86之1號1、2樓",
    "location": { "lat": 25.0621892, "lng": 121.634888 }
  },
  {
    "name": "新北市私立安格幼兒園",
    "address": "[221]新北市汐止區橫科里27鄰弘道街53巷8弄5號1樓，7號1樓",
    "location": { "lat": 25.0487869, "lng": 121.618977 }
  },
  {
    "name": "新北市私立花仙子幼兒園",
    "address": "[221]新北市汐止區北峰里21鄰康寧街445-1號1樓、445-2號1樓、445-3號1樓",
    "location": { "lat": 25.0682857, "lng": 121.6310397 }
  },
  {
    "name": "新北市私立超群幼兒園",
    "address": "[221]新北市汐止區福山里2鄰民權街二段81巷3.5號1樓",
    "location": { "lat": 25.0476724, "lng": 121.619334 }
  },
  {
    "name": "新北市私立愛莉幼兒園",
    "address": "[221]新北市汐止區中興里2鄰福德二路125巷6弄2號1樓",
    "location": { "lat": 25.0649699, "lng": 121.6311297 }
  },
  {
    "name": "新北市私立愛麗兒幼兒園",
    "address": "[221]新北市汐止區中興里20鄰福德二路125巷1號1、2樓",
    "location": { "lat": 25.065133, "lng": 121.631372 }
  },
  {
    "name": "新北市私立唯爾幼兒園",
    "address": "[221]新北市汐止區中興里13鄰福德二路106號1、2樓及108號1、2樓",
    "location": { "lat": 25.066037, "lng": 121.632217 }
  },
  {
    "name": "社團法人台北市親子成長協會附設新北市私立成長幼兒園",
    "address": "[221]新北市汐止區湖光里4鄰湖前街110巷97弄1號、2號",
    "location": { "lat": 25.0756561, "lng": 121.6330381 }
  },
  {
    "name": "新北市私立宏米優質幼兒園",
    "address": "[221]新北市汐止區仁德里6鄰和平街10、18、20號1樓",
    "location": { "lat": 25.0709409, "lng": 121.6630522 }
  },
  {
    "name": "新北市私立童圓幼兒園",
    "address": "[221]新北市汐止區湖光里18鄰民族二街14號及16號1、2、3樓",
    "location": { "lat": 25.072079, "lng": 121.63571 }
  },
  {
    "name": "新北市私立幼?幼兒園",
    "address": "[221]新北市汐止區忠孝里14鄰樟樹一路81號、83號1樓",
    "location": { "lat": 25.0632349, "lng": 121.6416264 }
  },
  {
    "name": "新北市私立書樂幼兒園",
    "address": "[221]新北市汐止區湖光里17鄰康寧街619號1樓、2樓、3樓",
    "location": { "lat": 25.071575, "lng": 121.636488 }
  },
  {
    "name": "新北市私立華興幼兒園",
    "address": "[221]新北市汐止區忠孝里20鄰樟樹二路112號1、2樓",
    "location": { "lat": 25.064887, "lng": 121.639864 }
  },
  {
    "name": "新北市私立新寶兒幼兒園",
    "address": "[221]新北市汐止區自強里2鄰新興路83-4號1樓,83-2號2樓",
    "location": { "lat": 25.0617531, "lng": 121.6578608 }
  },
  {
    "name": "新北市私立青山幼兒園",
    "address": "[221]新北市汐止區自強里25鄰青山路8號1樓、2樓",
    "location": { "lat": 25.0624871, "lng": 121.6558548 }
  },
  {
    "name": "新北市私立佳盈幼兒園",
    "address": "[221]新北市汐止區自強里24鄰汐止市莊敬街130號2樓",
    "location": { "lat": 25.0611537, "lng": 121.6543277 }
  },
  {
    "name": "新北市私立惟柰米幼兒園",
    "address": "[221]新北市汐止區文化里21鄰新台五路1段82號2樓",
    "location": { "lat": 25.060905, "lng": 121.648106 }
  },
  {
    "name": "新北市私立愛樂幼兒園",
    "address": "[221]新北市汐止區金龍里15鄰汐止市民族三街1號1樓",
    "location": { "lat": 25.0705, "lng": 121.630876 }
  },
  {
    "name": "新北市私立大愛幼兒園",
    "address": "[221]新北市汐止區福德里13鄰福德一路213巷29號、33號、35號1樓",
    "location": { "lat": 25.064842, "lng": 121.635524 }
  },
  {
    "name": "新北市私立吉優幼兒園",
    "address": "[221]新北市汐止區康福里23鄰福德一路86巷20號1、2、3樓及26號3樓",
    "location": { "lat": 25.0692309, "lng": 121.6375272 }
  },
  {
    "name": "新北市私立康大幼兒園",
    "address": "[221]新北市汐止區康福里24鄰福德一路86巷46號1樓、2樓",
    "location": { "lat": 25.0690771, "lng": 121.637011 }
  },
  {
    "name": "新北市私立柏克力幼兒園",
    "address": "[221]新北市汐止區興福里5鄰福德一路151號、153號1樓、2樓及159巷3號1樓",
    "location": { "lat": 25.0666288, "lng": 121.6366412 }
  },
  {
    "name": "新北市私立君格綠園道幼兒園",
    "address": "[221]新北市汐止區山光里5鄰樟樹二路330巷70號1樓,72號1樓,72-1號1~2樓,76號1~2樓",
    "location": { "lat": 25.069913, "lng": 121.642341 }
  },
  {
    "name": "新北市私立汐止名人幼兒園",
    "address": "[221]新北市汐止區大同里21鄰大同路2段240之1號1樓、240號2樓之3",
    "location": { "lat": 25.0654009, "lng": 121.6540726 }
  },
  {
    "name": "新北市私立慧爾幼兒園",
    "address": "[221]新北市汐止區大同里21鄰大同路二段240號3樓",
    "location": { "lat": 25.0654009, "lng": 121.6540726 }
  },
  {
    "name": "新北市私立恩佑幼兒園",
    "address": "[221]新北市汐止區大同里22鄰大同路二段196號3樓",
    "location": { "lat": 25.0645902, "lng": 121.6530814 }
  },
  {
    "name": "新北市私立聯合幼兒園",
    "address": "[221]新北市汐止區湖興里3鄰翠峰街2巷2號1樓",
    "location": { "lat": 25.0765829, "lng": 121.645539 }
  },
  {
    "name": "新北市私立威頓皇家幼兒園",
    "address": "[221]新北市汐止區福安里6鄰仁愛路168號2樓之1及170號1、2樓、2樓之1",
    "location": { "lat": 25.0652541, "lng": 121.6644073 }
  },
  {
    "name": "新北市私立嘉維幼兒園",
    "address": "[221]新北市汐止區福安里2鄰新台五路2段102號1樓、98號2樓",
    "location": { "lat": 25.0659538, "lng": 121.6625282 }
  },
  {
    "name": "新北市私立芝?城幼兒園",
    "address": "[221]新北市汐止區福安里13鄰新台五路2段150號1.2樓",
    "location": { "lat": 25.0665466, "lng": 121.6642952 }
  },
  {
    "name": "新北市私立崴崴幼兒園",
    "address": "[221]新北市汐止區建成里4鄰建成路28巷31號1~3樓",
    "location": { "lat": 25.0730861, "lng": 121.6642754 }
  },
  {
    "name": "新北市私立新華德幼兒園",
    "address": "[221]新北市汐止區建成里10鄰建成路150號1、2樓",
    "location": { "lat": 25.0734472, "lng": 121.662164 }
  },
  {
    "name": "新北市私立樺興幼兒園",
    "address": "[224]新北市瑞芳區龍潭里8鄰瑞芳街21之1號1樓",
    "location": { "lat": 25.1095959, "lng": 121.8066655 }
  },
  {
    "name": "新北市私立米其幼兒園",
    "address": "[224]新北市瑞芳區龍興里7鄰明燈路3段50巷14號1樓、16號1樓",
    "location": { "lat": 25.1079488, "lng": 121.8072688 }
  },
  {
    "name": "新北市私立育格幼兒園",
    "address": "[224]新北市瑞芳區吉安里5鄰大埔路國宅新村30之1號1-2樓",
    "location": { "lat": 25.1012114, "lng": 121.7612363 }
  },
  {
    "name": "新北市私立金幼聲幼兒園",
    "address": "[224]新北市瑞芳區吉安里5鄰大埔路吉慶公園城4號1樓、2樓、6號1樓",
    "location": { "lat": 25.100225, "lng": 121.765327 }
  },
  {
    "name": "新北市私立星星幼兒園",
    "address": "[224]新北市瑞芳區新峰里6鄰三爪子坑路國中新村18號1、2樓",
    "location": { "lat": 25.1068456, "lng": 121.8102003 }
  },
  {
    "name": "新北市私立華德幼兒園",
    "address": "[236]新北市土城區員林里16鄰員林街59號1、2樓",
    "location": { "lat": 24.977668, "lng": 121.443907 }
  },
  {
    "name": "新北市私立培幼幼兒園",
    "address": "[236]新北市土城區員林里34鄰中央路二段61巷48號、61巷44弄3號1樓、61巷50弄2號及4號1樓",
    "location": { "lat": 24.978189, "lng": 121.444093 }
  },
  {
    "name": "新北市私立迪爾幼兒園",
    "address": "[236]新北市土城區員林里19鄰中央路二段61巷30號、32號1樓",
    "location": { "lat": 24.978438, "lng": 121.443382 }
  },
  {
    "name": "新北市私立立新幼兒園",
    "address": "[236]新北市土城區員林里26鄰中央路2段149巷10弄2號1樓、4號1樓",
    "location": { "lat": 24.9765696, "lng": 121.4426287 }
  },
  {
    "name": "新北市私立吉恩幼兒園",
    "address": "[236]新北市土城區員仁里2鄰中央路二段392之1號1、2樓",
    "location": { "lat": 24.97103, "lng": 121.439567 }
  },
  {
    "name": "新北市私立米亞藝術幼兒園",
    "address": "[236]新北市土城區員林里30鄰員林街16號、16之1號1樓",
    "location": { "lat": 24.9777526, "lng": 121.4432574 }
  },
  {
    "name": "新北市私立史丹福幼兒園",
    "address": "[236]新北市土城區員仁里7鄰中央路二段326號1樓",
    "location": { "lat": 24.972499, "lng": 121.440203 }
  },
  {
    "name": "新北市私立幼幼幼兒園",
    "address": "[236]新北市土城區日新里21鄰中央路一段242巷6號1樓及242巷8弄4號1樓、6號1樓、8號1樓",
    "location": { "lat": 24.984938, "lng": 121.4445337 }
  },
  {
    "name": "新北市私立丹妮爾幼兒園",
    "address": "[236]新北市土城區日和里21鄰中央路一段285、287號",
    "location": { "lat": 24.9908818, "lng": 121.4485071 }
  },
  {
    "name": "新北市私立裕民幼兒園",
    "address": "[236]新北市土城區日新里5鄰中央路一段223號1、2、3樓",
    "location": { "lat": 24.9864816, "lng": 121.445782 }
  },
  {
    "name": "新北市私立北極星幼兒園",
    "address": "[236]新北市土城區貨饒里10鄰學成路165號1樓、167號1樓、169號1~2樓、171號2樓",
    "location": { "lat": 24.989139, "lng": 121.448273 }
  },
  {
    "name": "新北市私立名亮幼兒園",
    "address": "[236]新北市土城區柑林里1鄰金城路2段260號2樓",
    "location": { "lat": 24.9835934, "lng": 121.4577239 }
  },
  {
    "name": "新北市私立天翔幼兒園",
    "address": "[236]新北市土城區埤林里4鄰學享街47號、49號1、2樓",
    "location": { "lat": 24.9871271, "lng": 121.451776 }
  },
  {
    "name": "新北市私立安佳幼兒園",
    "address": "[236]新北市土城區瑞興里10鄰廣明街74、76號",
    "location": { "lat": 24.9920564, "lng": 121.455998 }
  },
  {
    "name": "新北市私立征洋幼兒園",
    "address": "[236]新北市土城區清水里16鄰仁愛路16巷3弄7、7-1、9、9-1號",
    "location": { "lat": 24.9803057, "lng": 121.4601861 }
  },
  {
    "name": "新北市私立常春藤幼兒園",
    "address": "[236]新北市土城區清水里19鄰青仁路1號",
    "location": { "lat": 24.9786749, "lng": 121.4592882 }
  },
  {
    "name": "新北市私立奇士華幼兒園",
    "address": "[236]新北市土城區清水里27鄰青仁路26號1樓",
    "location": { "lat": 24.9787473, "lng": 121.4605196 }
  },
  {
    "name": "新北市私立永昇幼兒園",
    "address": "[236]新北市土城區永豐里7鄰清水路214號、216號各1、2、3樓",
    "location": { "lat": 24.9819311, "lng": 121.4607844 }
  },
  {
    "name": "新北市私立新華園幼兒園",
    "address": "[236]新北市土城區清溪里35鄰清水路267號1~2樓",
    "location": { "lat": 24.9851782, "lng": 121.4635503 }
  },
  {
    "name": "新北市私立優生幼兒園",
    "address": "[236]新北市土城區清溪里36鄰清水路245巷6號2-3樓",
    "location": { "lat": 24.9845307, "lng": 121.4623692 }
  },
  {
    "name": "新北市私立京揚幼兒園",
    "address": "[236]新北市土城區?廷里19鄰金城路三段152號1、2樓",
    "location": { "lat": 24.9891632, "lng": 121.4706158 }
  },
  {
    "name": "新北市私立土城名仁幼兒園",
    "address": "[236]新北市土城區?廷里8鄰延吉街217巷9弄3號",
    "location": { "lat": 24.9845021, "lng": 121.4688465 }
  },
  {
    "name": "新北市私立安和幼兒園",
    "address": "[236]新北市土城區平和里18鄰延和路105巷1弄4號1樓,6號1樓",
    "location": { "lat": 24.9905938, "lng": 121.4673367 }
  },
  {
    "name": "新北市私立欣和幼兒園",
    "address": "[236]新北市土城區廷寮里19鄰延吉街253巷18弄3號1.2樓",
    "location": { "lat": 24.9841747, "lng": 121.4677967 }
  },
  {
    "name": "新北市私立延吉幼兒園",
    "address": "[236]新北市土城區廷寮里18鄰延吉街253巷14號、16號1樓",
    "location": { "lat": 24.9842863, "lng": 121.4676104 }
  },
  {
    "name": "新北市私立土農幼兒園",
    "address": "[236]新北市土城區大安里7鄰永和路23號1樓,2樓",
    "location": { "lat": 25.0041341, "lng": 121.4991519 }
  },
  {
    "name": "新北市私立維多莉爾南天母幼兒園",
    "address": "[236]新北市土城區大安里15鄰南天母路111巷10之1號1樓",
    "location": { "lat": 24.955327, "lng": 121.448706 }
  },
  {
    "name": "新北市私立愛妮爾國際幼兒園",
    "address": "[236]新北市土城區大安里4鄰中央路3段99號",
    "location": { "lat": 24.966841, "lng": 121.4364863 }
  },
  {
    "name": "新北市私立凱樂幼兒園",
    "address": "[236]新北市土城區永寧里31鄰中央路三段189號2樓",
    "location": { "lat": 24.9648924, "lng": 121.4308934 }
  },
  {
    "name": "新北市私立高登幼兒園",
    "address": "[236]新北市土城區永寧里9鄰中央路3段279號1、2、3樓",
    "location": { "lat": 24.9635329, "lng": 121.427092 }
  },
  {
    "name": "新北市私立頂埔幼兒園",
    "address": "[236]新北市土城區頂福里17鄰中州路24巷5號1、2樓",
    "location": { "lat": 24.9578008, "lng": 121.4146733 }
  },
  {
    "name": "新北市私立廣福幼兒園",
    "address": "[236]新北市土城區廣福里32鄰學府路一段5號1~2樓、5-2號2樓",
    "location": { "lat": 24.9883989, "lng": 121.4588445 }
  },
  {
    "name": "新北市私立嘉府幼兒園",
    "address": "[236]新北市土城區學府里19鄰學府路1段155巷2號2樓、157號2樓",
    "location": { "lat": 24.9874302, "lng": 121.455178 }
  },
  {
    "name": "新北市私立樹德幼兒園",
    "address": "[236]新北市土城區樂利里36鄰裕民路114巷25、27、31號2樓",
    "location": { "lat": 24.9855114, "lng": 121.449978 }
  },
  {
    "name": "新北市私立慈園幼兒園",
    "address": "[236]新北市土城區樂利里32鄰學府路一段270巷4號",
    "location": { "lat": 24.984236, "lng": 121.4510553 }
  },
  {
    "name": "新北市私立金城幼兒園",
    "address": "[236]新北市土城區延壽里14鄰延和路180號1,2樓",
    "location": { "lat": 24.9901738, "lng": 121.4690092 }
  },
  {
    "name": "新北市私立森林幼兒園",
    "address": "[236]新北市土城區廣福里17鄰學府路一段115巷13號1~2樓",
    "location": { "lat": 24.987129, "lng": 121.456117 }
  },
  {
    "name": "新北市私立名家幼兒園",
    "address": "[236]新北市土城區員福里3鄰水源街32巷14號1樓、16號1樓、14-1號2樓、16-1號2樓",
    "location": { "lat": 24.975785, "lng": 121.44128 }
  },
  {
    "name": "新北市私立茁壯園幼兒園",
    "address": "[236]新北市土城區員福里17鄰福祥街42巷9號、11號",
    "location": { "lat": 24.9807204, "lng": 121.4419921 }
  },
  {
    "name": "新北市私立幼強幼兒園",
    "address": "[236]新北市土城區延吉里17鄰延吉街78巷1弄2、4、6、8、10號",
    "location": { "lat": 24.9867739, "lng": 121.470554 }
  },
  {
    "name": "新北市私立怡寶幼兒園",
    "address": "[236]新北市土城區復興里7鄰廣福街129巷5號1,2樓",
    "location": { "lat": 24.9928686, "lng": 121.4559477 }
  },
  {
    "name": "新北市私立裕德幼兒園",
    "address": "[236]新北市土城區裕生里8鄰中華路一段46之1號附2、3樓",
    "location": { "lat": 24.9894995, "lng": 121.445793 }
  },
  {
    "name": "新北市私立立仁幼兒園",
    "address": "[236]新北市土城區裕生里37鄰樂利街5號1、2樓",
    "location": { "lat": 24.9861408, "lng": 121.448634 }
  },
  {
    "name": "新北市私立詠樂幼兒園",
    "address": "[236]新北市土城區延和里13鄰延和路19號1樓、2樓",
    "location": { "lat": 24.9881804, "lng": 121.4641286 }
  },
  {
    "name": "新北市私立裕德藝術幼兒園",
    "address": "[236]新北市土城區裕生里8鄰中華路一段46號1,2,3樓",
    "location": { "lat": 24.9894995, "lng": 121.445793 }
  },
  {
    "name": "新北市私立新惠星幼兒園",
    "address": "[236]新北市土城區延和里11鄰延和路18巷15弄3號1樓",
    "location": { "lat": 24.9879508, "lng": 121.4652177 }
  },
  {
    "name": "新北市私立慈霖幼兒園",
    "address": "[236]新北市土城區學士里17鄰金城路二段211號1、2樓",
    "location": { "lat": 24.98211, "lng": 121.4546839 }
  },
  {
    "name": "新北市私立文藻幼兒園",
    "address": "[236]新北市土城區延和里9鄰金城路3段19號1、2樓",
    "location": { "lat": 24.986549, "lng": 121.464969 }
  },
  {
    "name": "新北市私立肯恩土城幼兒園",
    "address": "[236]新北市土城區學士里5鄰學士路12巷16號1樓及18號1、2樓",
    "location": { "lat": 24.9837496, "lng": 121.4530062 }
  },
  {
    "name": "新北市私立土城育全幼兒園",
    "address": "[236]新北市土城區廣興里7鄰學府路1段98巷32號1樓、2樓、3樓",
    "location": { "lat": 24.9883282, "lng": 121.4590506 }
  },
  {
    "name": "新北市私立肯恩幼兒園",
    "address": "[236]新北市土城區學士里4鄰學士路12巷12號2樓",
    "location": { "lat": 24.9834003, "lng": 121.4533462 }
  },
  {
    "name": "新北市私立休士頓幼兒園",
    "address": "[236]新北市土城區青山里2鄰明德路一段74號1.2.3樓",
    "location": { "lat": 24.9812327, "lng": 121.4651896 }
  },
  {
    "name": "新北市私立維多莉爾幼兒園",
    "address": "[236]新北市土城區金城里10鄰金城路三段64號1、2樓",
    "location": { "lat": 24.9867999, "lng": 121.46639 }
  },
  {
    "name": "新北市私立河馬幼兒園",
    "address": "[236]新北市土城區延祿里21鄰延和路185號1、2樓",
    "location": { "lat": 24.990408, "lng": 121.469055 }
  },
  {
    "name": "新北市私立愛丁堡幼兒園",
    "address": "[247]新北市蘆洲區正義里2鄰光榮路103號1樓、2樓",
    "location": { "lat": 25.089731, "lng": 121.4647324 }
  },
  {
    "name": "新北市私立長興幼兒園",
    "address": "[247]新北市蘆洲區正義里2鄰中正路377號、377號2樓、377號3樓之1",
    "location": { "lat": 25.0908575, "lng": 121.4644531 }
  },
  {
    "name": "新北市私立馨園幼兒園",
    "address": "[247]新北市蘆洲區正義里8鄰長樂路81號1樓",
    "location": { "lat": 25.0868705, "lng": 121.4624938 }
  },
  {
    "name": "新北市私立佳佳安長榮幼兒園",
    "address": "[247]新北市蘆洲區正義里17鄰長榮路369號1樓、2樓、3樓",
    "location": { "lat": 25.0885612, "lng": 121.4592774 }
  },
  {
    "name": "新北市私立西雅圖幼兒園",
    "address": "[247]新北市蘆洲區正義里3鄰光榮路96號1樓",
    "location": { "lat": 25.0890587, "lng": 121.4639882 }
  },
  {
    "name": "新北市私立劍橋幼兒園",
    "address": "[247]新北市蘆洲區正義里4鄰長榮路700號1、2樓",
    "location": { "lat": 25.0913999, "lng": 121.460407 }
  },
  {
    "name": "新北市私立泉慧幼兒園",
    "address": "[247]新北市蘆洲區正義里12鄰長興路293號1樓",
    "location": { "lat": 25.0890399, "lng": 121.4602641 }
  },
  {
    "name": "新北市私立奇異鳥蘆洲幼兒園",
    "address": "[247]新北市蘆洲區正義里2鄰中正路373號1樓",
    "location": { "lat": 25.0907181, "lng": 121.4645438 }
  },
  {
    "name": "新北市私立幸運草幼兒園",
    "address": "[247]新北市蘆洲區中原里25鄰長樂路1號、3號1樓",
    "location": { "lat": 25.0847076, "lng": 121.4640653 }
  },
  {
    "name": "新北市私立勁寶兒長樂幼兒園",
    "address": "[247]新北市蘆洲區中原里28鄰光復路34號1樓、34號2樓、34號3樓及36號2樓",
    "location": { "lat": 25.084842, "lng": 121.46338 }
  },
  {
    "name": "新北市私立日安幼兒園",
    "address": "[247]新北市蘆洲區保佑里10鄰民族路455號1、2樓",
    "location": { "lat": 25.0885856, "lng": 121.4672942 }
  },
  {
    "name": "新北市私立幼育成幼兒園",
    "address": "[247]新北市蘆洲區中路里16鄰和平路162之1號1樓",
    "location": { "lat": 25.081175, "lng": 121.466562 }
  },
  {
    "name": "新北市私立快樂佳園幼兒園",
    "address": "[247]新北市蘆洲區水湳里15鄰民族路375號",
    "location": { "lat": 25.090846, "lng": 121.470612 }
  },
  {
    "name": "新北市私立快樂園幼兒園",
    "address": "[247]新北市蘆洲區水湳里10鄰民義街77號1、2、3樓",
    "location": { "lat": 25.090273, "lng": 121.473251 }
  },
  {
    "name": "新北市私立愛麗斯幼兒園",
    "address": "[247]新北市蘆洲區水湳里23鄰水湳街102號2樓、104號1、2樓",
    "location": { "lat": 25.092719, "lng": 121.46966 }
  },
  {
    "name": "新北市私立文德幼兒園",
    "address": "[247]新北市蘆洲區水湳里14鄰民義街35巷14號1、2樓",
    "location": { "lat": 25.0894793, "lng": 121.4720844 }
  },
  {
    "name": "新北市私立蘆洲來來幼兒園",
    "address": "[247]新北市蘆洲區水湳里8鄰民權路156號1、2、3樓",
    "location": { "lat": 25.0897538, "lng": 121.4723724 }
  },
  {
    "name": "新北市私立文心幼兒園",
    "address": "[247]新北市蘆洲區樓厝里1鄰集賢路222巷3號1樓、5號1、2樓",
    "location": { "lat": 25.0868551, "lng": 121.482478 }
  },
  {
    "name": "新北市私立新大智幼兒園",
    "address": "[247]新北市蘆洲區樓厝里1鄰集賢路224巷10號1樓",
    "location": { "lat": 25.0869231, "lng": 121.4822112 }
  },
  {
    "name": "新北市私立翊華中興幼兒園",
    "address": "[247]新北市蘆洲區樓厝里9鄰中興街177號1樓",
    "location": { "lat": 25.0898351, "lng": 121.4818467 }
  },
  {
    "name": "新北市私立今人園幼兒園",
    "address": "[247]新北市蘆洲區鷺江里3鄰民權路38巷18號1樓",
    "location": { "lat": 25.0864371, "lng": 121.4769606 }
  },
  {
    "name": "新北市私立來得幼兒園",
    "address": "[247]新北市蘆洲區鷺江里3鄰民權路38巷5、7號1樓",
    "location": { "lat": 25.0867168, "lng": 121.4764798 }
  },
  {
    "name": "新北市私立綠森林幼兒園",
    "address": "[247]新北市蘆洲區鷺江里21鄰民族路31號2樓",
    "location": { "lat": 25.0850474, "lng": 121.4777242 }
  },
  {
    "name": "新北市私立蘆洲北大幼兒園",
    "address": "[247]新北市蘆洲區鷺江里16鄰三民路臨86號",
    "location": { "lat": 25.0824187, "lng": 121.4760342 }
  },
  {
    "name": "新北市私立榕榕園幼兒園",
    "address": "[247]新北市蘆洲區恆德里20鄰重陽街15號1樓、夾層及17號1樓",
    "location": { "lat": 25.0821985, "lng": 121.4808214 }
  },
  {
    "name": "新北市私立多比幼兒園",
    "address": "[247]新北市蘆洲區恆德里21鄰重陽街50號、52號1樓",
    "location": { "lat": 25.0832731, "lng": 121.4814774 }
  },
  {
    "name": "新北市私立徐匯幼兒園",
    "address": "[247]新北市蘆洲區溪墘里4鄰民生街1、3號1、2樓",
    "location": { "lat": 25.0790963, "lng": 121.4763896 }
  },
  {
    "name": "新北市私立美樂蒂幼兒園",
    "address": "[247]新北市蘆洲區得勝里3鄰中央路103號1、2樓",
    "location": { "lat": 25.0840303, "lng": 121.472331 }
  },
  {
    "name": "新北市私立蘆幼幼兒園",
    "address": "[247]新北市蘆洲區南港里10鄰永平街32巷57弄2號1樓、6號1樓",
    "location": { "lat": 25.0930206, "lng": 121.4597806 }
  },
  {
    "name": "新北市私立兜群育資優幼兒園",
    "address": "[247]新北市蘆洲區永樂里5鄰永平街53,55號1樓",
    "location": { "lat": 25.091381, "lng": 121.4577169 }
  },
  {
    "name": "新北市私立小頂康幼兒園",
    "address": "[247]新北市蘆洲區永樂里22鄰環堤大道172號",
    "location": { "lat": 25.0899396, "lng": 121.4563942 }
  },
  {
    "name": "新北市私立向詮幼兒園",
    "address": "[247]新北市蘆洲區永樂里23鄰永樂街38巷11號1,2樓",
    "location": { "lat": 25.0887406, "lng": 121.4580421 }
  },
  {
    "name": "新北市私立博聖幼兒園",
    "address": "[247]新北市蘆洲區永樂里27鄰永樂街80號2樓",
    "location": { "lat": 25.088704, "lng": 121.4568557 }
  },
  {
    "name": "新北市私立中華兒童幼兒園",
    "address": "[247]新北市蘆洲區永康里7鄰長安街267巷24弄1號1、2樓",
    "location": { "lat": 25.0833749, "lng": 121.457458 }
  },
  {
    "name": "新北市私立蘆洲星辰幼兒園",
    "address": "[247]新北市蘆洲區信義里20鄰民族路145號1樓、147號1樓",
    "location": { "lat": 25.0876668, "lng": 121.4795377 }
  },
  {
    "name": "新北市私立翊華幼兒園",
    "address": "[247]新北市蘆洲區信義里6鄰民族路167巷3號1樓及2樓",
    "location": { "lat": 25.0881684, "lng": 121.4787888 }
  },
  {
    "name": "新北市私立民族幼兒園",
    "address": "[247]新北市蘆洲區信義里20鄰民族路153巷9號1樓、145之2號1樓、145號2樓之3、145號2樓之4",
    "location": { "lat": 25.0877618, "lng": 121.4791601 }
  },
  {
    "name": "新北市私立佳辰幼兒園",
    "address": "[247]新北市蘆洲區玉清里14鄰民族路218號1、2、3樓",
    "location": { "lat": 25.0878593, "lng": 121.4797331 }
  },
  {
    "name": "新北市私立慈育幼兒園",
    "address": "[247]新北市蘆洲區玉清里2鄰信義路222巷11號1樓",
    "location": { "lat": 25.0854191, "lng": 121.4793887 }
  },
  {
    "name": "新北市私立佳佳安幼兒園",
    "address": "[247]新北市蘆洲區仁愛里4鄰水湳街3號1、2樓",
    "location": { "lat": 25.0886288, "lng": 121.4729021 }
  },
  {
    "name": "新北市私立美敦幼兒園",
    "address": "[247]新北市蘆洲區忠義里11鄰中原路21巷4號1樓",
    "location": { "lat": 25.0821076, "lng": 121.4612695 }
  },
  {
    "name": "新北市私立光華幼兒園",
    "address": "[247]新北市蘆洲區玉清里6鄰重陽二街8號1、2樓",
    "location": { "lat": 25.0847684, "lng": 121.483271 }
  },
  {
    "name": "新北市私立康橋幼兒園",
    "address": "[247]新北市蘆洲區仁德里18鄰鷺江街97號1樓及93號、95號、97號2樓",
    "location": { "lat": 25.0838509, "lng": 121.4767399 }
  },
  {
    "name": "新北市私立國園幼兒園",
    "address": "[247]新北市蘆洲區仁義里2鄰信義路222巷34弄18號1樓",
    "location": { "lat": 25.084834, "lng": 121.480829 }
  },
  {
    "name": "功學社教育用品股份有限公司附設新北市私立燕翔幼兒園",
    "address": "[247]新北市蘆洲區中華里3鄰中山二路162之1號",
    "location": { "lat": 25.081134, "lng": 121.470961 }
  },
  {
    "name": "新北市私立愛心園幼兒園",
    "address": "[247]新北市蘆洲區長安里13鄰長安街193巷12、14號1樓",
    "location": { "lat": 25.0815612, "lng": 121.4600702 }
  },
  {
    "name": "新北市私立全國幼兒園",
    "address": "[247]新北市蘆洲區民和里1鄰民生街99號、101號、103號1樓",
    "location": { "lat": 25.078643, "lng": 121.47371 }
  },
  {
    "name": "新北市私立中冠幼兒園",
    "address": "[247]新北市蘆洲區長安里1鄰中華街64號1、2樓",
    "location": { "lat": 25.0800336, "lng": 121.4614871 }
  },
  {
    "name": "新北市私立普薪幼兒園",
    "address": "[247]新北市蘆洲區忠孝里3鄰民義街70號、72號1樓",
    "location": { "lat": 25.08995, "lng": 121.4731371 }
  },
  {
    "name": "新北市私立美式夏綠蒂幼兒園",
    "address": "[247]新北市蘆洲區永安里4鄰九芎街71巷1號1、2樓",
    "location": { "lat": 25.0787821, "lng": 121.466796 }
  },
  {
    "name": "新北市私立邦妮幼兒園",
    "address": "[247]新北市蘆洲區延平里17鄰中華路85號1~2樓、83號2樓",
    "location": { "lat": 25.0791959, "lng": 121.4624006 }
  },
  {
    "name": "新北市私立興華幼兒園",
    "address": "[247]新北市蘆洲區延平里13鄰長安街73巷3號1、2樓",
    "location": { "lat": 25.079693, "lng": 121.462508 }
  },
  {
    "name": "新北市私立環愛幼兒園",
    "address": "[247]新北市蘆洲區成功里14鄰長安街375巷3號1~2樓",
    "location": { "lat": 25.0877989, "lng": 121.456912 }
  },
  {
    "name": "新北市私立佳思美幼兒園",
    "address": "[247]新北市蘆洲區成功里8鄰永樂街31巷28號1樓",
    "location": { "lat": 25.0874477, "lng": 121.4580236 }
  },
  {
    "name": "新北市私立新冠鈞幼兒園",
    "address": "[247]新北市蘆洲區成功里1鄰長安街242號、242號2樓之1、成功里2鄰長安街246巷2號1樓",
    "location": { "lat": 25.0860615, "lng": 121.4577719 }
  },
  {
    "name": "新北市私立維多利亞幼兒園",
    "address": "[247]新北市蘆洲區成功里7鄰長安街288號1、2樓",
    "location": { "lat": 25.0876716, "lng": 121.457356 }
  },
  {
    "name": "新北市私立凱文幼兒園",
    "address": "[247]新北市蘆洲區永德里6鄰長安街178號1、2樓",
    "location": { "lat": 25.0835947, "lng": 121.4590815 }
  },
  {
    "name": "新北市私立威爾斯幼兒園",
    "address": "[248]新北市五股區興珍里8鄰中興路4段48巷15號2樓",
    "location": { "lat": 25.083433, "lng": 121.438384 }
  },
  {
    "name": "新北市私立強生幼兒園",
    "address": "[248]新北市五股區成州里22鄰西雲路231號1樓233號1樓",
    "location": { "lat": 25.097375, "lng": 121.448865 }
  },
  {
    "name": "新北市私立聖雅幼兒園",
    "address": "[248]新北市五股區成州里1鄰成泰路3段377號1樓、377號之1(2樓)",
    "location": { "lat": 25.0963353, "lng": 121.4490311 }
  },
  {
    "name": "新北市私立成泰幼兒園",
    "address": "[248]新北市五股區五股里16鄰成泰路2段91巷17號1樓",
    "location": { "lat": 25.084346, "lng": 121.437508 }
  },
  {
    "name": "新北市私立維珍妮幼兒園",
    "address": "[248]新北市五股區成州里23鄰西雲路288號1樓",
    "location": { "lat": 25.0986567, "lng": 121.4496598 }
  },
  {
    "name": "新北市私立小百科幼兒園",
    "address": "[248]新北市五股區成州里6鄰西雲路249號1樓",
    "location": { "lat": 25.0979175, "lng": 121.4491908 }
  },
  {
    "name": "新北市私立凱怡幼兒園",
    "address": "[248]新北市五股區五股里19鄰成泰路二段170號1樓",
    "location": { "lat": 25.084187, "lng": 121.438662 }
  },
  {
    "name": "新北市私立星辰幼兒園",
    "address": "[248]新北市五股區成德里17鄰成泰路3段577巷61號",
    "location": { "lat": 25.1033129, "lng": 121.450668 }
  },
  {
    "name": "新北市私立溫德爾幼兒園",
    "address": "[248]新北市五股區德音里24鄰成泰路一段132號1、2、3樓",
    "location": { "lat": 25.0754272, "lng": 121.4351822 }
  },
  {
    "name": "新北市私立良華幼兒園",
    "address": "[248]新北市五股區成德里10鄰成泰路三段543巷9號2樓",
    "location": { "lat": 25.1022024, "lng": 121.45074 }
  },
  {
    "name": "新北市私立優質幼兒園",
    "address": "[248]新北市五股區六福里14鄰五福路105號1樓、107號1樓",
    "location": { "lat": 25.0905928, "lng": 121.4320588 }
  },
  {
    "name": "新北市私立文愛幼兒園",
    "address": "[248]新北市五股區民義里18鄰民義路一段112號",
    "location": { "lat": 25.0853929, "lng": 121.435373 }
  },
  {
    "name": "新北市私立菲米力幼兒園",
    "address": "[248]新北市五股區民義里15鄰民義路一段120號2樓",
    "location": { "lat": 25.0858765, "lng": 121.4348709 }
  },
  {
    "name": "新北市私立薇妮幼兒園",
    "address": "[248]新北市五股區水碓里21鄰水碓路2號1樓、6號1樓",
    "location": { "lat": 25.072366, "lng": 121.434253 }
  },
  {
    "name": "新北市私立學華幼兒園",
    "address": "[248]新北市五股區民義里23鄰工商路164號1、2樓",
    "location": { "lat": 25.0879718, "lng": 121.4335631 }
  },
  {
    "name": "新北市私立華盛頓幼兒園",
    "address": "[248]新北市五股區水碓里25鄰成泰路1段101號1樓、2樓、3樓",
    "location": { "lat": 25.0795063, "lng": 121.436198 }
  },
  {
    "name": "新北市私立振鋒幼兒園",
    "address": "[248]新北市五股區水碓里27鄰明德路73之1號1樓及73號1、2、3樓",
    "location": { "lat": 25.0711212, "lng": 121.4333798 }
  },
  {
    "name": "新北市私立新邦仁幼兒園",
    "address": "[248]新北市五股區福德里17鄰登林路81之52號1、2樓",
    "location": { "lat": 25.070327, "lng": 121.427031 }
  },
  {
    "name": "新北市私立德寶幼兒園",
    "address": "[248]新北市五股區水碓里16鄰水碓路16巷33號1樓",
    "location": { "lat": 25.0725517, "lng": 121.4335675 }
  },
  {
    "name": "新北市私立育榕幼兒園",
    "address": "[243]新北市泰山區山腳里32鄰泰林路2段261號1樓",
    "location": { "lat": 25.0625682, "lng": 121.4310045 }
  },
  {
    "name": "新北市私立心翔幼兒園",
    "address": "[243]新北市泰山區同榮里8鄰辭修路10之11號1樓",
    "location": { "lat": 25.058002, "lng": 121.430095 }
  },
  {
    "name": "財團法人天主教瑪利亞方濟各傳教女修會附設新北市私立曉明幼兒園",
    "address": "[243]新北市泰山區明志里19鄰應化街6巷5號",
    "location": { "lat": 25.0441677, "lng": 121.4247082 }
  },
  {
    "name": "新北市私立泰山慈惠幼兒園",
    "address": "[243]新北市泰山區貴和里33鄰明志路3段454巷4號、6號",
    "location": { "lat": 25.0325353, "lng": 121.4205596 }
  },
  {
    "name": "新北市私立黎明幼兒園",
    "address": "[243]新北市泰山區山腳里4鄰泰林路二段471號、471之1號、475號、475-1號",
    "location": { "lat": 25.063895, "lng": 121.4250653 }
  },
  {
    "name": "財團法人臺灣省天主教道明傳教修女會附設新北市私立道明幼兒園",
    "address": "[243]新北市泰山區貴和里24鄰明志路三段295號",
    "location": { "lat": 25.0364234, "lng": 121.4228781 }
  },
  {
    "name": "新北市私立喬安幼兒園",
    "address": "[243]新北市泰山區明志里12鄰明志路三段142巷8號3樓之1號",
    "location": { "lat": 25.0398015, "lng": 121.4246084 }
  },
  {
    "name": "新北市私立青樺幼兒園",
    "address": "[243]新北市泰山區義仁里9鄰民生路17巷27、29號",
    "location": { "lat": 25.0517656, "lng": 121.4296573 }
  },
  {
    "name": "新北市私立振德幼兒園",
    "address": "[243]新北市泰山區義仁里18鄰民權街14巷6號1、2、3樓",
    "location": { "lat": 25.050657, "lng": 121.427858 }
  },
  {
    "name": "新北市私立華菂幼兒園",
    "address": "[243]新北市泰山區義仁里4鄰民生路20號",
    "location": { "lat": 25.052499, "lng": 121.430301 }
  },
  {
    "name": "新北市私立泰山天藍幼兒園",
    "address": "[243]新北市泰山區貴賢里2鄰中央路36巷7號1樓、夾層、2樓",
    "location": { "lat": 25.0428021, "lng": 121.4262306 }
  },
  {
    "name": "新北市私立晴幼幼兒園",
    "address": "[243]新北市泰山區泰友里6鄰明志路2段273巷5弄20號",
    "location": { "lat": 25.0454132, "lng": 121.4316454 }
  },
  {
    "name": "新北市私立妙媽咪幼兒園",
    "address": "[243]新北市泰山區福興里25鄰仁德路67號1、2樓",
    "location": { "lat": 25.0567165, "lng": 121.4341977 }
  },
  {
    "name": "新北市私立及幼幼兒園",
    "address": "[243]新北市泰山區全興里15鄰仁愛路6巷7弄9號1、2樓",
    "location": { "lat": 25.0536395, "lng": 121.4313594 }
  },
  {
    "name": "新北市私立比佛利幼兒園",
    "address": "[243]新北市泰山區全興里5鄰仁德路97巷2號1、2樓及105號1、2樓",
    "location": { "lat": 25.0562869, "lng": 121.4331027 }
  },
  {
    "name": "新北市私立仁愛幼兒園",
    "address": "[243]新北市泰山區全興里14鄰仁愛路60號1樓",
    "location": { "lat": 25.0548026, "lng": 121.4320225 }
  },
  {
    "name": "新北市私立心語幼兒園",
    "address": "[244]新北市林口區西林里11鄰竹林路53巷11號1樓",
    "location": { "lat": 25.0784374, "lng": 121.3867536 }
  },
  {
    "name": "新北市私立林口愛丁堡幼兒園",
    "address": "[244]新北市林口區西林里12鄰中興街30號1、2樓",
    "location": { "lat": 25.077042, "lng": 121.388544 }
  },
  {
    "name": "新北市私立勁寶兒林口幼兒園",
    "address": "[244]新北市林口區西林里27鄰隆林街101巷2號1、2、3樓",
    "location": { "lat": 25.0742643, "lng": 121.3850677 }
  },
  {
    "name": "新北市私立林口幼兒園",
    "address": "[244]新北市林口區菁湖里5鄰林口路89號",
    "location": { "lat": 25.0798935, "lng": 121.389327 }
  },
  {
    "name": "新北市私立文達幼兒園",
    "address": "[244]新北市林口區湖南里11鄰中正路514巷4弄2號1、2樓",
    "location": { "lat": 25.0776442, "lng": 121.381662 }
  },
  {
    "name": "新北市私立吉而堡幼兒園",
    "address": "[244]新北市林口區菁湖里14鄰中北三街56號1、2、3樓",
    "location": { "lat": 25.0855749, "lng": 121.3846524 }
  },
  {
    "name": "新北市私立溫德爾林口幼兒園",
    "address": "[244]新北市林口區湖南里11鄰中正路518之1號",
    "location": { "lat": 25.0771541, "lng": 121.3816921 }
  },
  {
    "name": "新北市私立福祿貝爾幼兒園",
    "address": "[244]新北市林口區湖南里23鄰民權路110號1、2樓",
    "location": { "lat": 25.0827915, "lng": 121.3737919 }
  },
  {
    "name": "新北市私立小木屋蒙特梭利幼兒園",
    "address": "[244]新北市林口區南勢里13鄰民族路9號1樓",
    "location": { "lat": 25.0736595, "lng": 121.3639185 }
  },
  {
    "name": "新北市私立千愛幼兒園",
    "address": "[244]新北市林口區東勢里39鄰忠孝路646巷9號1樓",
    "location": { "lat": 25.0677948, "lng": 121.3790451 }
  },
  {
    "name": "新北市私立翔祥幼兒園",
    "address": "[244]新北市林口區東勢里30鄰麗園二街13巷2號1樓、夾層、2樓",
    "location": { "lat": 25.069696, "lng": 121.3793909 }
  },
  {
    "name": "新北市私立萬美幼兒園",
    "address": "[244]新北市林口區仁愛里7鄰文化二路一段260巷7號之4〈1~2樓〉",
    "location": { "lat": 25.073131, "lng": 121.371288 }
  },
  {
    "name": "新北市私立奇異鳥麗林幼兒園",
    "address": "[244]新北市林口區仁愛里29鄰公園路138號1樓、2樓、2樓之1",
    "location": { "lat": 25.0715025, "lng": 121.3712812 }
  },
  {
    "name": "新北市私立愛林幼兒園",
    "address": "[244]新北市林口區麗林里30鄰公園路42號",
    "location": { "lat": 25.0686085, "lng": 121.3682287 }
  },
  {
    "name": "新北市私立心兒園幼兒園",
    "address": "[244]新北市林口區麗林里30鄰八德路48巷37號1、2、3樓",
    "location": { "lat": 25.0676822, "lng": 121.3671715 }
  },
  {
    "name": "新北市私立愛霖幼兒園",
    "address": "[244]新北市林口區麗林里30鄰公園路40號1、2樓",
    "location": { "lat": 25.0680437, "lng": 121.3672436 }
  },
  {
    "name": "新北市私立愛林城堡幼兒園",
    "address": "[244]新北市林口區麗林里30鄰公園路45號1、2、3樓",
    "location": { "lat": 25.0686061, "lng": 121.3673369 }
  },
  {
    "name": "新北市私立微笑幼兒園",
    "address": "[244]新北市林口區麗林里30鄰八德路18號1樓",
    "location": { "lat": 25.0674394, "lng": 121.3683708 }
  },
  {
    "name": "新北市私立福林幼兒園",
    "address": "[244]新北市林口區麗園里17鄰文化一路1段100巷12號",
    "location": { "lat": 25.0612127, "lng": 121.3706873 }
  },
  {
    "name": "新北市私立智盛幼兒園",
    "address": "[244]新北市林口區麗園里17鄰文化1路1段120號（1層）、2、3樓",
    "location": { "lat": 25.0678636, "lng": 121.3734604 }
  },
  {
    "name": "新北市私立林口啟文幼兒園",
    "address": "[244]新北市林口區麗園里17鄰忠孝路589巷5號1、2、3樓",
    "location": { "lat": 25.06892, "lng": 121.375325 }
  },
  {
    "name": "新北市私立南蒂亞幼兒園",
    "address": "[244]新北市林口區麗園里18鄰麗園路94號1、2樓",
    "location": { "lat": 25.0682293, "lng": 121.372001 }
  },
  {
    "name": "新北市私立華邇街幼兒園",
    "address": "[244]新北市林口區麗園里18鄰忠孝路542巷8之1號1樓",
    "location": { "lat": 25.0671322, "lng": 121.3727451 }
  },
  {
    "name": "財團法人華山愛德教育基金會附設新北市私立林口愛德幼兒園",
    "address": "[244]新北市林口區麗園里18鄰忠孝路542巷11弄2之5號1樓至3樓",
    "location": { "lat": 25.0669309, "lng": 121.3728223 }
  },
  {
    "name": "新北市私立新苗幼兒園",
    "address": "[222]新北市深坑區埔新里56鄰文化街42號1樓、52號1、2樓",
    "location": { "lat": 25.0017769, "lng": 121.6190951 }
  },
  {
    "name": "新北市私立春福幼兒園",
    "address": "[222]新北市深坑區埔新里52鄰文化街10號1樓,2樓",
    "location": { "lat": 25.0014439, "lng": 121.6203533 }
  },
  {
    "name": "新北市私立深緣幼兒園",
    "address": "[222]新北市深坑區深坑里30鄰平埔街5巷12號1樓及9巷9號1樓",
    "location": { "lat": 25.0010274, "lng": 121.6161602 }
  },
  {
    "name": "新北市私立敦品幼兒園",
    "address": "[252]新北市三芝區埔頭里23鄰中山路一段39號2樓、41號2樓",
    "location": { "lat": 25.2576086, "lng": 121.5007467 }
  },
  {
    "name": "新北市私立新象幼兒園",
    "address": "[222]新北市深坑區埔新里21鄰埔新街58巷11號1、2樓",
    "location": { "lat": 25.0033823, "lng": 121.6199346 }
  },
  {
    "name": "新北市私立幼親國際幼兒園",
    "address": "[252]新北市三芝區埔頭里26鄰公正街30號2樓、公正街34號",
    "location": { "lat": 25.2577455, "lng": 121.5002087 }
  },
  {
    "name": "新北市私立幼親幼兒園",
    "address": "[252]新北市三芝區埔頭里26鄰公正街60號2樓",
    "location": { "lat": 25.2576422, "lng": 121.5000232 }
  },
  {
    "name": "馬偕學校財團法人馬偕醫護管理專科學校附設新北市私立馬偕示範幼兒園",
    "address": "[252]新北市三芝區古庄里1鄰中正路3段42號1樓",
    "location": { "lat": 25.1694343, "lng": 121.4432871 }
  },
  {
    "name": "財團法人天主教光仁文教基金會附設新北市私立三芝幼兒園",
    "address": "[252]新北市三芝區埔頭里22鄰長安街59號1,2樓",
    "location": { "lat": 25.2567669, "lng": 121.5008835 }
  },
  {
    "name": "新北市私立智成幼兒園",
    "address": "[252]新北市三芝區埔坪里11鄰智成街5號2樓、7號2樓",
    "location": { "lat": 25.2566605, "lng": 121.5028788 }
  },
  {
    "name": "新北市私立芝柏幼兒園",
    "address": "[252]新北市三芝區茂長里9鄰觀海街1號1樓、2樓",
    "location": { "lat": 25.2584116, "lng": 121.5092873 }
  },
  {
    "name": "財團法人新北市私立聖心國民小學附設新北市私立善牧園幼兒園",
    "address": "[249]新北市八里區龍源里19鄰龍米路1段261號",
    "location": { "lat": 25.1145953, "lng": 121.4583872 }
  },
  {
    "name": "新北市私立青樹幼兒園",
    "address": "[249]新北市八里區米倉里4鄰龍米路二段69號1、2樓",
    "location": { "lat": 25.1411054, "lng": 121.4478575 }
  },
  {
    "name": "新北市私立快樂芝麻幼兒園",
    "address": "[249]新北市八里區大崁里1鄰龍米路三段38號1、2樓",
    "location": { "lat": 25.159347, "lng": 121.4283377 }
  },
  {
    "name": "新北市私立大崁璽恩幼兒園",
    "address": "[249]新北市八里區大崁里3鄰中山路1段190號1、2樓",
    "location": { "lat": 25.1571685, "lng": 121.4256183 }
  },
  {
    "name": "新北市私立人文幼兒園",
    "address": "[249]新北市八里區頂罟里5鄰仁一街1號1、2、3樓",
    "location": { "lat": 25.1585425, "lng": 121.4096311 }
  },
  {
    "name": "新北市私立青子園幼兒園",
    "address": "[249]新北市八里區訊塘里7鄰中山路二段466巷23號1樓及夾層",
    "location": { "lat": 25.1474847, "lng": 121.3979068 }
  },
  {
    "name": "新北市私立快樂學園幼兒園",
    "address": "[249]新北市八里區訊塘里15鄰中山路2段540巷28號1樓",
    "location": { "lat": 25.147062, "lng": 121.397159 }
  },
  {
    "name": "新北市私立邱吉爾幼兒園",
    "address": "[249]新北市八里區舊城里19鄰中華路二段520號1樓、522號1樓",
    "location": { "lat": 25.1452592, "lng": 121.3995581 }
  },
  {
    "name": "財團法人天主教光仁文教基金會附設新北市私立天仁幼兒園",
    "address": "[208]新北市金山區金美里17鄰中正路25號1樓",
    "location": { "lat": 25.2221157, "lng": 121.6354971 }
  },
  {
    "name": "新北市私立大鵬幼兒園",
    "address": "[207]新北市萬里區大鵬里11鄰萬里加投70之3號1、2樓",
    "location": { "lat": 25.214719, "lng": 121.644585 }
  },
  {
    "name": "新北市私立天心幼兒園",
    "address": "[207]新北市萬里區萬里里6鄰瑪鋉下街17號1、2樓",
    "location": { "lat": 25.1800016, "lng": 121.6907826 }
  },
  {
    "name": "財團法人三之三生命教育基金會附設新北市私立山北非營利幼兒園(新北市政府委託辦理)",
    "address": "[235]新北市中和區福美里7鄰莊敬路49巷29弄2號2-3樓",
    "location": { "lat": 25.006149, "lng": 121.501556 }
  },
  {
    "name": "社團法人桃園市教保服務人員協會附設新北市私立安溪非營利幼兒園(新北市政府委託辦理)",
    "address": "[237]新北市三峽區礁溪里25鄰中華路42號",
    "location": { "lat": 24.9310827, "lng": 121.372483 }
  },
  {
    "name": "財團法人成長文教基金會附設新北市私立龍埔成長非營利幼兒園(新北市政府委託辦理)",
    "address": "[237]新北市三峽區龍學里1鄰大學路6號",
    "location": { "lat": 24.941131, "lng": 121.3773909 }
  },
  {
    "name": "社團法人新北市幼兒成長協會附設新北市私立海工非營利幼兒園(新北市政府委託辦理)",
    "address": "[236]新北市土城區學府里9鄰學府路一段241號1,2樓",
    "location": { "lat": 24.984116, "lng": 121.4513618 }
  }
]
